     3.02           OBSERVATION DATA    M (MIXED)           RINEX VERSION / TYPE
BINEX2RINEX  2.10   GSI, JAPAN          20230528 03:43:06UTCPGM / RUN BY / DATE
3019                                                        MARKER NAME
GEODETIC                                                    MARKER TYPE
GSI, JAPAN          GEOSPATIAL INFORMATION AUTHORITY OF JAPAOBSERVER / AGENCY
00000               TPS NETG5           5.2.6,08/May/2020   REC # / TYPE / VERS
                    TRM159900.00    GSI                     ANT # / TYPE
 -3941956.1858  3368145.4203  3702217.4723                  APPROX POSITION XYZ
        0.0000        0.0000        0.0000                  ANTENNA: DELTA H/E/N
G   20 C1C L1C D1C S1C C1W L1W D1W S1W C2X L2X D2X S2X C2W  SYS / # / OBS TYPES
       L2W D2W S2W C5X L5X D5X S5X                          SYS / # / OBS TYPES
R   16 C1C L1C D1C S1C C1P L1P D1P S1P C2C L2C D2C S2C C2P  SYS / # / OBS TYPES
       L2P D2P S2P                                          SYS / # / OBS TYPES
E   16 C1X L1X D1X S1X C5X L5X D5X S5X C7X L7X D7X S7X C8X  SYS / # / OBS TYPES
       L8X D8X S8X                                          SYS / # / OBS TYPES
J   12 C1C L1C D1C S1C C2X L2X D2X S2X C5X L5X D5X S5X      SYS / # / OBS TYPES
  2023     5    28     2     0    0.0000000     GPS         TIME OF FIRST OBS
G L1C  0.00000 10 G01 G02 G03 G07 G08 G14 G17 G21 G27 G30   SYS / PHASE SHIFT
G L1W -0.25000 10 G01 G02 G03 G07 G08 G14 G17 G21 G27 G30   SYS / PHASE SHIFT
G L2X  0.25000  8 G01 G03 G07 G08 G14 G17 G27 G30           SYS / PHASE SHIFT
G L2W  0.00000 10 G01 G02 G03 G07 G08 G14 G17 G21 G27 G30   SYS / PHASE SHIFT
G L5X  0.00000  6 G01 G03 G08 G14 G27 G30                   SYS / PHASE SHIFT
R L1C  0.00000 10 R02 R03 R04 R09 R10 R15 R16 R17 R18 R19   SYS / PHASE SHIFT
R L1P -0.25000 10 R02 R03 R04 R09 R10 R15 R16 R17 R18 R19   SYS / PHASE SHIFT
R L2C  0.00000  9 R02 R03 R04 R09 R15 R16 R17 R18 R19       SYS / PHASE SHIFT
R L2P -0.25000  9 R02 R03 R04 R09 R15 R16 R17 R18 R19       SYS / PHASE SHIFT
J L1C  0.00000  4 J02 J03 J04 J07                           SYS / PHASE SHIFT
J L2X  0.25000  4 J02 J03 J04 J07                           SYS / PHASE SHIFT
J L5X  0.00000  4 J02 J03 J04 J07                           SYS / PHASE SHIFT
E L1X  0.00000  8 E10 E12 E14 E21 E24 E26 E31 E33           SYS / PHASE SHIFT
E L5X  0.00000  8 E10 E12 E14 E21 E24 E26 E31 E33           SYS / PHASE SHIFT
E L7X  0.00000  8 E10 E12 E14 E21 E24 E26 E31 E33           SYS / PHASE SHIFT
E L8X  0.00000  8 E10 E12 E14 E21 E24 E26 E31 E33           SYS / PHASE SHIFT
 10 R02 -4 R03  5 R04  6 R09 -2 R10 -7 R15  0 R16 -1 R17  4 GLONASS SLOT / FRQ #
    R18 -3 R19  3                                           GLONASS SLOT / FRQ #
                                                            GLONASS COD/PHS/BIS
    30.000                                                  INTERVAL
    18                                                      LEAP SECONDS
smtt off - ms jumps in time tag (smooth phase and range)    COMMENT
                                                            END OF HEADER
> 2023 05 28 02 00  0.0000000  0 27
R02  23335125.522   124520726.388 6       378.254          41.400    23335127.673   124520726.380 6       378.254          41.100    23335127.527    96849479.491 6       294.195          39.500    23335128.927    96849475.481 6       294.195          39.000
R19  20223513.955   108182191.246 6       669.855          39.800    20223516.396   108182191.242 6       669.855          39.000    20223511.952    84141725.457 8       521.000          48.700    20223512.116    84141719.458 8       521.000          48.100
R09  20858539.135   111383485.410 8      2489.387          49.800    20858541.579   111383485.403 8      2489.387          49.000    20858537.484    86631606.151 8      1936.191          48.900    20858538.179    86631604.153 8      1936.191          48.200
J02  37505942.173   197095093.393 7       772.359          46.600    37505944.285   153580610.214 8       601.840          49.300    37505953.199   147181463.951 8       576.762          53.400
G27  24577589.939   129156006.439 5     -2512.676          34.900    24577589.9374  129156006.45242     -2512.6764         17.5004   24577598.205   100641026.248 6     -1957.926          38.300    24577599.8054  100641024.24042     -1957.9264         17.7004   24577607.284    96447672.396 6     -1876.348          40.800
G01  19871372.563   104424833.750 8       358.438          49.200    19871372.4594  104424833.75849       358.4384         54.0004   19871374.987    81370034.807 8       279.301          52.700    19871375.6984   81370047.80049       279.3014         54.2004   19871382.000    77979660.453 9       267.664          55.600
G02  22635821.274   118952093.279 7     -2374.082          44.900    22635820.6134  118952093.28245     -2374.0824         35.9004                                                                   22635819.9724   92689957.74445     -1849.9344         35.9004
G08  21926498.352   115224545.549 7     -1621.082          44.700    21926498.0644  115224545.54345     -1621.0824         35.3004   21926502.455    89785375.903 7     -1263.180          47.400    21926501.7644   89785377.89945     -1263.1804         35.2004   21926508.613    86044348.362 8     -1210.547          49.700
E14  20110303.501   105680302.801 6     -4033.746          39.700    20110317.391    78917127.853 7     -3012.211          43.500    20110314.247    80975826.292 7     -3090.793          43.400    20110315.733    79946482.949 7     -3051.504          43.600
G30  23055882.986   121159484.277 6     -1113.652          39.600    23055882.6324  121159484.27746     -1113.6524         38.4004   23055888.193    94410003.393 6      -867.781          41.500    23055888.3934   94410009.40246      -867.7814         37.6004   23055896.484    90476290.088 7      -831.621          45.900
G03  23086934.587   121322689.597 6      3662.656          39.600    23086934.8134  121322689.59746      3662.6564         38.9004   23086941.559    94537192.852 7      2854.016          42.800    23086941.1414   94537199.84446      2854.0164         38.9004   23086949.750    90598192.153 7      2735.098          45.900
G21  20938611.486   110033213.682 7     -1792.672          47.000    20938610.6594  110033213.68846     -1792.6724         41.6004                                                                   20938610.6564   85740188.17546     -1396.8874         41.7004
E12  26762852.960   140639762.952 5      2382.816          35.900    26762867.618   105023257.884 6      1779.379          40.200    26762864.186   107762982.363 6      1825.797          39.500    26762865.911   106393127.496 6      1802.586          40.000
R17  23438020.524   125421547.730 6     -2904.934          38.900    23438023.420   125421547.709 6     -2904.934          37.400    23438022.718    97550098.313 6     -2259.391          39.700    23438023.446    97550098.314 6     -2259.391          38.700
G07  22976282.269   120741144.821 6     -2327.523          40.000    22976282.3004  120741144.83546     -2327.5234         36.8004   22976286.941    94084016.401 6     -1813.656          39.400    22976286.9204   94084014.40346     -1813.6564         36.5004
R03  23076639.818   123531109.697 6      2952.930          41.800    23076642.179   123531109.690 6      2952.930          40.200    23076641.906    96079789.795 6      2296.723          40.500    23076641.980    96079783.789 6      2296.723          40.200
E21  27571295.532   144888040.279 5     -2776.473          33.900    27571317.060   108195626.833 6     -2073.340          38.700    27571313.979   111018112.927 6     -2127.426          39.200    27571315.389   109606875.256 6     -2100.383          39.000
G14  22161595.041   116460010.607 7      2880.188          43.700    22161594.8114  116460010.62245      2880.1884         33.7004   22161596.259    90748080.296 7      2244.301          45.600    22161596.5524   90748082.30145      2244.3014         33.6004   22161608.690    86966962.593 8      2150.789          49.500
E31  24228685.963   127322669.757 7      1462.066          46.800    24228698.859    95078693.953 8      1091.805          51.100    24228696.176    97558998.507 8      1120.285          50.600    24228697.506    96318849.107 8      1106.043          51.000
R16  19724835.642   105366574.332 8     -1861.746          53.300    19724838.757   105366574.330 8     -1861.746          52.600    19724835.837    81951796.461 8     -1448.023          50.800    19724836.383    81951800.463 8     -1448.023          50.800
R15  22898418.341   122362153.954 6     -4299.656          40.500    22898421.916   122362153.969 6     -4299.656          40.100    22898423.821    95170565.189 7     -3344.176          42.200    22898424.077    95170559.192 7     -3344.176          42.200
E33  23567495.803   123848092.603 7       470.770          46.700    23567506.374    92484042.899 8       351.547          52.300    23567503.890    94896657.645 8       360.719          52.800    23567505.132    93690355.644 8       356.133          52.500
R18  20421613.347   109012018.229 8     -1717.930          50.900    20421616.326   109012018.222 8     -1717.930          50.000    20421613.243    84787144.433 8     -1336.168          49.500    20421614.029    84787158.429 8     -1336.168          49.800
E26  24509278.065   128797173.900 7     -1709.602          45.600    24509288.477    96179772.509 8     -1276.652          49.100    24509286.240    98688796.277 8     -1309.957          50.600    24509287.295    97434289.768 8     -1293.305          49.900
J04  36900199.693   193911868.998 6       373.324          37.800    36900205.346   151100179.858 6       290.902          38.600    36900215.335   144804381.069 7       278.781          43.000
J07  37297299.151   195998628.618 6       137.816          38.300    37297301.402   152726213.573 7       107.391          45.000    37297311.211   146362660.279 8       102.914          50.100
J03  38442572.177   202017068.452 8      -464.348          48.800    38442573.961   157415896.515 8      -361.828          50.000    38442583.106   150856936.393 8      -346.754          53.500
> 2023 05 28 02 00 30.0000000  0 27
R02  23333064.135   124509726.113 6       355.098          41.600    23333065.869   124509726.101 6       355.098          40.200    23333066.755    96840923.764 6       276.188          40.500    23333066.749    96840919.772 6       276.188          40.400
R19  20219791.335   108162274.632 6       658.137          39.700    20219792.904   108162274.634 6       658.137          38.800    20219788.801    84126234.784 8       511.883          48.200    20219789.094    84126228.782 8       511.883          48.200
R09  20844614.574   111309130.070 8      2467.617          49.400    20844616.985   111309130.071 8      2467.617          48.500    20844613.338    86573774.235 8      1919.258          49.000    20844613.849    86573772.241 8      1919.258          48.500
J02  37501536.517   197071942.180 7       771.078          46.500    37501539.057   153562570.293 8       600.840          49.400    37501547.688   147164175.689 8       575.805          53.100
G27  24591937.431   129231400.143 5     -2513.820          34.200    24591937.6424  129231400.15342     -2513.8204         17.3004   24591945.150   100699774.322 6     -1958.820          38.100    24591944.6294  100699772.31242     -1958.8204         17.4004   24591953.834    96503972.635 6     -1877.203          39.600
G01  19869375.582   104414340.107 8       341.262          48.400    19869375.6294  104414340.10749       341.2624         54.3004   19869378.336    81361857.960 8       265.918          52.700    19869378.7414   81361870.95349       265.9184         54.1004   19869385.135    77971824.317 9       254.840          55.700
G02  22649385.027   119023370.412 7     -2377.652          45.000    22649383.7664  119023370.41245     -2377.6524         35.8004                                                                   22649383.1554   92745498.32845     -1852.7154         35.7004
G08  21935769.348   115273265.118 7     -1626.762          44.600    21935768.8794  115273265.11745     -1626.7624         35.5004   21935772.982    89823339.170 7     -1267.605          47.300    21935772.6904   89823341.16545     -1267.6054         35.3004   21935779.846    86080729.811 8     -1214.789          50.100
E14  20133400.872   105801679.052 6     -4057.914          39.500    20133414.300    79007765.758 7     -3030.258          43.500    20133411.842    81068828.700 7     -3109.309          43.900    20133413.027    80038303.102 7     -3069.785          43.500
G30  23062283.832   121193119.225 6     -1128.566          40.500    23062282.9184  121193119.23446     -1128.5664         37.4004   23062289.049    94436212.368 6      -879.402          41.700    23062288.8244   94436218.36846      -879.4024         37.4004   23062297.302    90501406.981 7      -842.762          45.700
G03  23066040.019   121212890.482 6      3657.184          38.900    23066040.3614  121212890.48346      3657.1844         38.4004   23066046.633    94451635.252 7      2849.754          42.500    23066046.2254   94451642.24146      2849.7544         38.2004   23066055.343    90516199.477 7      2731.012          45.500
G21  20948869.713   110087120.478 7     -1801.059          47.900    20948868.9574  110087120.48346     -1801.0594         41.1004                                                                   20948868.6394   85782193.44746     -1403.4224         40.9004
E12  26749267.075   140568363.876 5      2376.836          35.900    26749281.238   104969940.565 6      1774.910          40.200    26749277.806   107708274.139 6      1821.211          40.300    26749279.269   106339114.726 6      1798.062          40.300
R17  23454299.007   125508658.085 5     -2902.016          35.600    23454302.396   125508658.090 5     -2902.016          35.300    23454302.032    97617850.738 6     -2257.121          38.500    23454301.822    97617850.731 6     -2257.121          38.000
G07  22989593.149   120811093.650 6     -2335.445          40.000    22989593.0364  120811093.64746     -2335.4454         36.6004   22989597.894    94138521.810 6     -1819.828          38.900    22989597.2264   94138519.79646     -1819.8284         36.7004
R03  23060122.444   123442693.279 6      2941.504          41.000    23060125.329   123442693.280 6      2941.504          40.300    23060125.083    96011021.654 6      2287.836          40.600    23060125.215    96011015.661 6      2287.836          40.800
E21  27587159.499   144971390.857 5     -2780.074          34.600    27587178.496   108257868.998 6     -2076.031          38.700    27587175.138   111081978.822 6     -2130.188          39.100    27587176.714   109669929.282 6     -2103.109          38.900
G14  22145181.677   116373757.197 7      2870.113          44.300    22145181.3484  116373757.20745      2870.1134         33.9004   22145182.818    90680869.897 7      2236.453          45.800    22145182.9764   90680871.88945      2236.4534         33.9004   22145195.225    86902552.631 8      2143.266          49.100
E31  24220369.765   127278966.074 7      1451.590          46.900    24220382.283    95046058.089 8      1083.980          50.700    24220379.657    97525511.273 8      1112.258          51.400    24220381.029    96285787.555 8      1098.117          50.900
R16  19735360.952   105422796.405 8     -1886.254          53.100    19735363.716   105422796.405 8     -1886.254          52.300    19735361.293    81995524.680 8     -1467.086          51.000    19735361.387    81995528.685 8     -1467.086          50.500
R15  22922571.009   122491215.264 6     -4304.176          39.600    22922574.016   122491215.268 6     -4304.176          38.500    22922576.213    95270945.964 7     -3347.691          42.100    22922576.087    95270939.966 6     -3347.691          41.900
E33  23564835.008   123834110.535 7       461.508          46.400    23564845.651    92473601.765 8       344.633          52.800    23564843.234    94885944.132 8       353.625          52.700    23564844.424    93679778.324 8       349.129          53.000
R18  20431283.891   109063642.712 8     -1723.652          50.500    20431287.059   109063642.712 8     -1723.652          49.600    20431284.166    84827296.805 8     -1340.617          49.200    20431284.790    84827310.802 8     -1340.617          49.300
E26  24519050.649   128848527.329 7     -1713.898          46.100    24519060.901    96218120.819 8     -1279.859          48.600    24519058.441    98728144.979 8     -1313.246          50.300    24519059.672    97473138.274 8     -1296.555          49.100
J04  36898071.051   193900681.832 6       372.402          37.700    36898076.363   151091462.660 6       290.184          37.700    36898086.397   144796027.090 7       278.094          43.100
J07  37296512.660   195994498.145 6       137.688          38.300    37296515.512   152722995.016 7       107.289          45.000    37296525.151   146359575.817 8       102.816          50.300
J03  38445219.629   202030981.707 7      -463.051          45.800    38445221.428   157426738.015 8      -360.816          49.600    38445230.761   150867326.168 8      -345.785          53.700
> 2023 05 28 02 01  0.0000000  0 27
R02  23331131.631   124499416.902 6       332.078          40.400    23331134.271   124499416.907 6       332.078          40.200    23331134.008    96832905.597 6       258.285          40.100    23331134.816    96832901.594 6       258.285          39.900
R19  20216131.467   108142700.709 6       646.820          40.100    20216133.791   108142700.710 6       646.820          38.800    20216129.589    84111010.644 8       503.082          48.100    20216129.673    84111004.639 7       503.082          47.800
R09  20830812.489   111235427.764 8      2445.852          49.400    20830814.921   111235427.758 8      2445.852          48.300    20830811.185    86516450.251 8      1902.328          49.100    20830811.737    86516448.257 8      1902.328          48.500
J02  37497137.592   197048824.967 7       770.062          46.800    37497140.176   153544556.866 8       600.051          49.200    37497148.695   147146912.818 8       575.047          52.700
G27  24606293.654   129306841.144 5     -2515.492          33.900    24606292.9254  129306841.14742     -2515.4924         16.4004   24606302.612   100758559.323 6     -1960.125          38.700    24606301.7934  100758557.31242     -1960.1254         16.5004   24606309.926    96560308.178 6     -1878.453          40.400
G01  19867476.834   104404361.733 8       324.027          49.200    19867476.8674  104404361.73249       324.0274         54.0004   19867479.542    81354082.618 8       252.488          52.300    19867479.8034   81354095.61548       252.4884         53.8004   19867486.342    77964372.949 9       241.969          55.300
G02  22662968.244   119094750.677 7     -2380.953          44.900    22662967.1824  119094750.67745     -2380.9534         35.6004                                                                   22662966.5004   92801119.26945     -1855.2894         35.5004
G08  21945070.502   115322144.101 7     -1631.797          43.700    21945070.2534  115322144.09645     -1631.7974         35.2004   21945074.933    89861426.633 7     -1271.531          47.500    21945074.1394   89861428.63145     -1271.5314         34.9004   21945081.107    86117230.292 8     -1218.551          49.700
E14  20156634.748   105923773.723 6     -4081.844          39.500    20156648.549    79098940.144 7     -3048.129          44.000    20156645.737    81162381.569 7     -3127.648          44.000    20156647.188    80130666.729 7     -3087.891          43.800
G30  23068766.869   121227191.673 6     -1143.020          39.800    23068766.3484  121227191.68746     -1143.0204         37.7004   23068772.885    94462762.229 6      -890.664          41.900    23068773.0274   94462768.22246      -890.6644         37.4004   23068780.858    90526850.593 7      -853.551          45.800
G03  23045177.932   121103256.886 6      3651.656          40.200    23045177.7554  121103256.88746      3651.6564         39.2004   23045184.013    94366206.585 6      2845.445          41.700    23045183.9434   94366213.58946      2845.4454         39.0004   23045193.062    90434330.385 7      2726.887          46.200
G21  20959175.186   110141276.128 7     -1809.266          47.900    20959174.3074  110141276.13346     -1809.2664         41.1004                                                                   20959174.1614   85824392.64146     -1409.8164         41.0004
E12  26735712.179   140497141.104 5      2371.586          33.900    26735727.248   104916754.897 6      1770.988          40.300    26735724.399   107653701.011 6      1817.191          40.800    26735725.950   106285235.327 6      1794.090          40.600
R17  23470561.557   125595677.398 6     -2899.102          37.300    23470564.209   125595677.399 6     -2899.102          36.000    23470564.150    97685532.302 6     -2254.855          39.100    23470563.797    97685532.308 6     -2254.855          38.700
G07  23002948.508   120881276.332 6     -2343.238          39.000    23002948.2224  120881276.33246     -2343.2384         36.9004   23002953.037    94193209.362 6     -1825.902          39.900    23002953.2744   94193207.36546     -1825.9024         36.5004
R03  23043669.786   123354622.743 6      2929.953          41.200    23043672.907   123354622.739 6      2929.953          40.600    23043672.504    95942522.546 6      2278.852          40.900    23043673.055    95942516.542 6      2278.852          40.400
E21  27603038.150   145054842.463 5     -2783.453          34.400    27603058.523   108320186.588 6     -2078.551          37.900    27603056.010   111145922.120 6     -2132.777          39.100    27603057.129   109733059.727 6     -2105.664          38.500
G14  22128824.435   116287799.617 7      2860.430          42.900    22128824.5694  116287799.61945      2860.4304         33.7004   22128825.792    90613889.992 7      2228.906          45.800    22128825.4804   90613891.99145      2228.9064         33.5004   22128837.993    86838363.566 8      2136.035          49.200
E31  24212112.523   127235573.025 7      1441.238          47.000    24212124.819    95013654.181 8      1076.250          50.900    24212122.321    97492262.052 8      1104.328          50.600    24212123.570    96252960.992 8      1090.289          51.200
R16  19746022.727   105479749.363 8     -1910.574          52.700    19746025.485   105479749.361 8     -1910.574          52.300    19746022.551    82039821.371 8     -1486.004          50.800    19746023.223    82039825.367 8     -1486.004          50.400
R15  22946749.203   122620412.171 6     -4308.859          41.500    22946751.886   122620412.172 6     -4308.859          41.000    22946753.931    95371432.237 7     -3351.332          42.100    22946754.259    95371426.238 7     -3351.332          42.300
E33  23562226.603   123820402.243 7       452.418          46.600    23562237.055    92463365.072 8       337.844          52.600    23562234.568    94875440.395 8       346.656          53.100    23562235.821    93669408.105 8       342.250          52.700
R18  20440987.176   109115435.849 8     -1729.176          50.800    20440989.629   109115435.840 8     -1729.176          50.200    20440986.870    84867580.330 8     -1344.914          49.500    20440987.550    84867594.322 8     -1344.914          49.500
E26  24528846.851   128900006.437 7     -1718.023          45.800    24528857.037    96256562.981 8     -1282.941          49.200    24528854.815    98767589.985 8     -1316.406          50.100    24528855.907    97512081.857 8     -1299.676          49.700
J04  36895946.402   193889516.381 6       371.703          37.900    36895950.373   151082762.337 6       289.641          36.800    36895961.690   144787689.295 7       277.570          43.300
J07  37295726.080   195990365.065 6       137.973          38.400    37295729.118   152719774.424 7       107.512          45.300    37295738.685   146356489.417 8       103.031          50.300
J03  38447859.130   202044852.424 7      -461.598          47.400    38447860.813   157437546.378 8      -359.688          49.300    38447870.279   150877684.174 8      -344.699          53.800
> 2023 05 28 02 01 30.0000000  0 27
R02  23329329.953   124489800.573 6       308.941          41.300    23329331.735   124489800.568 6       308.941          40.200    23329331.539    96825426.295 6       240.289          37.700    23329332.084    96825422.296 6       240.289          38.000
R19  20212536.332   108123468.902 6       635.402          39.600    20212538.630   108123468.901 6       635.402          38.800    20212534.491    84096052.583 8       494.199          48.200    20212534.604    84096046.583 8       494.199          48.500
R09  20817133.105   111162381.918 8      2423.797          49.000    20817135.756   111162381.918 8      2423.797          48.300    20817132.340    86459636.844 8      1885.176          48.500    20817132.491    86459634.846 8      1885.176          48.200
J02  37492744.857   197025742.891 7       768.770          47.300    37492747.733   153526570.815 8       599.039          49.400    37492756.233   147129676.181 8       574.078          53.000
G27  24620659.032   129382330.205 5     -2517.133          33.600    24620658.8464  129382330.22242     -2517.1334         16.3004   24620666.722   100817381.736 6     -1961.402          37.400    24620667.6764  100817379.73642     -1961.4024         16.3004   24620675.349    96616679.622 6     -1879.676          39.500
G01  19865675.869   104394898.494 8       306.824          48.600    19865675.9954  104394898.49348       306.8244         53.9004   19865678.784    81346708.676 8       239.082          52.600    19865679.0904   81346721.67248       239.0824         53.8004   19865685.545    77957306.260 9       229.121          55.900
G02  22676570.947   119166233.146 7     -2384.504          45.200    22676570.1524  119166233.14445     -2384.5044         35.2004                                                                   22676569.1834   92856819.85045     -1858.0554         35.1004
G08  21954403.167   115371184.103 7     -1637.391          45.600    21954402.7324  115371184.09545     -1637.3914         35.9004   21954406.869    89899639.567 7     -1275.891          47.600    21954406.4234   89899641.56445     -1275.8914         35.7004   21954413.157    86153851.011 8     -1222.727          50.000
E14  20180005.092   106046583.439 6     -4105.469          39.600    20180018.800    79190648.489 7     -3065.773          43.100    20180015.805    81256482.336 7     -3145.750          43.500    20180017.232    80223571.284 7     -3105.762          44.000
G30  23075334.106   121261700.382 6     -1157.672          39.000    23075333.5534  121261700.38346     -1157.6724         37.0004   23075339.548    94489652.010 6      -902.082          41.100    23075339.9054   94489658.01146      -902.0824         36.9004   23075347.750    90552619.927 7      -864.496          46.100
G03  23024347.184   120993792.787 6      3645.988          40.500    23024347.4694  120993792.78246      3645.9884         38.8004   23024353.541    94280910.036 7      2841.031          42.100    23024353.2664   94280917.02846      2841.0314         38.8004   23024362.463    90352587.884 7      2722.656          46.200
G21  20969527.775   110195679.514 7     -1817.574          47.100    20969526.9744  110195679.52046     -1817.5744         41.3004                                                                   20969526.9284   85866784.87046     -1416.2934         41.2004
E12  26722192.687   140426096.071 5      2365.148          34.300    26722206.918   104863701.976 6      1766.184          39.600    26722204.843   107599264.071 6      1812.258          40.800    26722206.050   106231490.399 6      1789.219          40.100
R17  23486804.926   125682606.857 5     -2896.332          35.300    23486808.921   125682606.856 5     -2896.332          34.100    23486808.280    97753143.241 6     -2252.703          38.200    23486808.735    97753143.738 6     -2252.703          38.800
G07  23016347.719   120951690.583 6     -2351.160          39.700    23016348.0694  120951690.59146     -2351.1604         38.3004   23016353.335    94248077.424 6     -1832.070          40.100    23016353.0324   94248075.41546     -1832.0704         38.1004
R03  23027282.750   123266903.092 6      2918.031          41.300    23027285.733   123266903.103 6      2918.031          40.600    23027285.803    95874296.340 6      2269.578          41.500    23027285.971    95874290.335 6      2269.578          41.100
E21  27618937.057   145138394.591 5     -2786.641          34.200    27618957.988   108382579.256 6     -2080.934          38.200    27618955.852   111209942.418 6     -2135.219          39.800    27618956.753   109796266.214 6     -2108.078          39.000
G14  22112524.392   116202141.364 7      2850.223          44.100    22112524.4284  116202141.36845      2850.2234         34.3004   22112525.723    90547143.350 7      2220.953          46.500    22112525.5264   90547145.35045      2220.9534         34.2004   22112537.476    86774398.037 8      2128.414          48.900
E31  24203914.566   127192492.836 7      1430.773          47.000    24203927.003    94981483.913 8      1068.438          51.300    24203924.302    97459252.560 8      1096.309          51.400    24203925.682    96220371.112 8      1082.371          50.800
R16  19756820.875   105537431.496 8     -1934.922          52.700    19756823.597   105537431.496 8     -1934.922          52.300    19756821.117    82084685.187 8     -1504.941          50.700    19756821.514    82084689.197 8     -1504.941          51.000
R15  22970951.207   122749741.924 7     -4313.250          42.100    22970954.466   122749741.917 6     -4313.250          41.500    22970956.460    95472021.840 7     -3354.750          42.100    22970956.645    95472015.842 7     -3354.750          42.200
E33  23559669.931   123806967.781 7       443.188          46.300    23559680.508    92453332.863 8       330.949          52.500    23559678.034    94865146.473 8       339.586          53.400    23559679.259    93659245.043 8       335.266          52.700
R18  20450720.911   109167396.461 8     -1734.879          51.100    20450723.811   109167396.460 8     -1734.879          50.300    20450720.956    84907994.102 8     -1349.348          50.000    20450721.601    84908008.103 8     -1349.348          49.300
E26  24538666.230   128951610.788 7     -1722.301          45.600    24538677.049    96295098.674 8     -1286.133          49.500    24538674.583    98807130.957 8     -1319.684          50.200    24538675.778    97551120.188 8     -1302.910          49.300
J04  36893826.358   193878373.719 6       370.938          39.100    36893829.834   151074079.765 6       289.043          36.900    36893841.423   144779368.522 7       277.000          43.900
J07  37294939.497   195986230.314 6       137.789          37.900    37294942.335   152716552.529 7       107.367          45.100    37294951.884   146353401.767 8       102.895          49.900
J03  38450490.647   202058681.200 7      -460.344          47.700    38450492.303   157448322.046 8      -358.711          50.000    38450501.707   150888010.864 8      -343.762          53.500
> 2023 05 28 02 02  0.0000000  0 27
R02  23327657.875   124480881.276 6       285.598          39.900    23327660.181   124480881.266 6       285.598          39.400    23327660.533    96818489.102 6       222.133          39.400    23327660.412    96818485.110 6       222.133          39.200
R19  20209004.992   108104580.535 6       623.953          39.600    20209007.619   108104580.527 6       623.953          38.800    20209003.281    84081361.643 8       485.297          48.300    20209003.676    84081355.645 7       485.297          47.800
R09  20803578.151   111089998.793 8      2401.637          49.500    20803580.795   111089998.792 8      2401.637          49.100    20803576.872    86403338.877 8      1867.941          49.100    20803577.231    86403336.885 8      1867.941          48.200
J02  37488359.998   197002699.141 7       767.410          46.700    37488362.630   153508614.631 8       597.980          49.500    37488371.217   147112468.170 8       573.066          53.300
G27  24635033.527   129457870.192 5     -2519.172          35.100    24635033.0874  129457870.19542     -2519.1724         17.4004   24635042.155   100876243.881 6     -1962.992          38.100    24635042.4424  100876241.86942     -1962.9924         17.5004   24635050.950    96673089.145 6     -1881.199          40.500
G01  19863973.578   104385952.247 8       289.562          48.900    19863973.5944  104385952.24448       289.5624         53.9004   19863976.358    81339737.586 8       225.633          52.300    19863976.6714   81339750.58249       225.6334         54.1004   19863983.072    77950625.636 9       216.230          55.100
G02  22690193.313   119237818.853 7     -2388.074          45.600    22690192.3614  119237818.85845     -2388.0744         35.6004                                                                   22690191.7464   92912600.88845     -1860.8364         35.6004
G08  21963766.343   115420387.464 7     -1642.918          44.500    21963766.0474  115420387.45345     -1642.9184         35.7004   21963769.558    89937979.802 7     -1280.195          47.000    21963769.2214   89937981.79745     -1280.1954         35.6004   21963776.098    86190593.725 8     -1226.855          49.500
E14  20203510.554   106170106.883 6     -4129.445          38.600    20203524.783    79282889.828 7     -3083.676          43.200    20203521.723    81351129.987 7     -3164.121          43.900    20203523.242    80317015.779 7     -3123.898          43.800
G30  23081984.069   121296645.975 6     -1172.266          39.200    23081983.5544  121296645.96946     -1172.2664         37.0004   23081990.186    94516882.238 6      -913.453          41.900    23081990.1464   94516888.23046      -913.4534         36.9004   23081997.699    90578715.512 7      -875.395          45.800
G03  23003550.237   120884504.235 6      3639.949          41.200    23003550.8784  120884504.22746      3639.9494         39.3004   23003557.014    94195750.244 7      2836.324          42.200    23003556.4084   94195757.23446      2836.3244         39.0004   23003565.463    90270976.447 7      2718.145          46.800
G21  20979927.574   110250330.580 7     -1825.957          47.400    20979926.8554  110250330.58646     -1825.9574         41.4004                                                                   20979926.4784   85909370.10646     -1422.8244         41.3004
E12  26708707.676   140355231.813 5      2358.746          35.300    26708722.134   104810784.041 6      1761.402          39.900    26708720.220   107544965.645 6      1807.352          41.100    26708721.190   106177882.215 6      1784.375          40.500
R17  23503034.461   125769446.282 6     -2893.137          38.500    23503037.586   125769446.284 6     -2893.137          37.600    23503036.764    97820684.878 6     -2250.219          37.200    23503036.860    97820685.862 6     -2250.219          37.300
G07  23029791.406   121022336.344 6     -2358.637          40.500    23029791.6854  121022336.34246     -2358.6374         37.4004   23029796.594    94303125.874 6     -1837.898          39.300    23029796.2464   94303123.86646     -1837.8984         37.3004
R03  23010962.805   123179542.204 6      2905.906          41.200    23010965.634   123179542.213 6      2905.906          40.600    23010965.882    95806349.181 6      2260.148          41.100    23010966.096    95806343.162 6      2260.148          40.700
E21  27634857.805   145222048.942 5     -2790.410          34.700    27634877.731   108445048.233 6     -2083.750          38.900    27634874.188   111274041.033 6     -2138.105          39.700    27634875.949   109859550.012 6     -2110.930          39.200
G14  22096281.880   116116787.818 7      2839.914          43.800    22096281.9004  116116787.82345      2839.9144         34.4004   22096282.876    90480634.140 7      2212.922          46.200    22096283.1504   90480636.13545      2212.9224         34.0004   22096295.348    86710660.046 8      2120.715          49.400
E31  24195776.746   127149729.796 7      1420.066          46.400    24195789.406    94949550.474 8      1060.438          51.100    24195786.844    97426486.072 8      1088.102          51.000    24195788.139    96188021.146 8      1074.270          51.100
R16  19767755.698   105595842.993 8     -1959.262          53.400    19767758.451   105595842.988 8     -1959.262          52.000    19767755.971    82130116.294 8     -1523.871          50.900    19767756.153    82130120.299 8     -1523.871          51.100
R15  22995178.639   122879203.612 6     -4317.594          41.900    22995181.470   122879203.612 6     -4317.594          41.200    22995183.420    95572714.065 6     -3358.129          41.600    22995183.643    95572708.066 6     -3358.129          41.300
E33  23557165.982   123793809.215 7       433.887          46.100    23557176.503    92443506.678 8       324.008          52.500    23557173.956    94855063.952 8       332.457          53.400    23557175.190    93649290.688 8       328.234          52.500
R18  20460486.658   109219525.527 8     -1740.508          50.600    20460489.385   109219525.523 8     -1740.508          49.600    20460486.431    84948538.910 8     -1353.730          49.800    20460487.162    84948552.905 8     -1353.730          49.600
E26  24548510.826   129003341.807 7     -1726.559          45.400    24548521.295    96333728.950 8     -1289.312          48.700    24548518.845    98846768.988 8     -1322.949          49.700    24548519.951    97590254.345 8     -1306.133          49.600
J04  36891710.618   193867256.939 6       369.945          38.400    36891715.422   151065417.382 6       288.270          37.300    36891725.885   144771067.089 7       276.258          43.800
J07  37294153.206   195982096.627 6       137.613          37.700    37294155.427   152713331.458 7       107.230          44.900    37294165.251   146350314.912 8       102.762          50.100
J03  38453114.928   202072470.595 7      -459.074          47.800    38453116.475   157459067.029 8      -357.719          49.800    38453125.750   150898308.138 8      -342.816          53.000
> 2023 05 28 02 02 30.0000000  0 27
R02  23326117.963   124472659.720 6       262.594          41.000    23326119.293   124472659.719 6       262.594          40.200    23326119.715    96812094.604 6       204.242          39.300    23326120.498    96812090.611 6       204.242          39.400
R19  20205538.128   108086034.097 6       612.504          39.700    20205540.774   108086034.094 6       612.504          38.700    20205536.480    84066936.657 7       476.395          47.900    20205536.575    84066930.659 8       476.395          48.500
R09  20790147.996   111018281.746 8      2379.613          49.600    20790150.466   111018281.739 8      2379.613          48.800    20790146.683    86347558.965 8      1850.809          48.200    20790147.042    86347556.970 8      1850.809          48.000
J02  37483982.350   196979693.882 7       766.293          47.400    37483984.891   153490688.432 8       597.109          49.500    37483993.441   147095288.890 8       572.230          53.300
G27  24649419.065   129533460.990 5     -2520.320          35.300    24649418.9194  129533460.98442     -2520.3204         16.5004   24649426.643   100935145.568 6     -1963.887          37.100    24649427.3494  100935143.54642     -1963.8874         16.3004   24649435.910    96729536.519 6     -1882.059          41.300
G01  19862369.533   104377521.912 8       272.504          50.200    19862369.3504  104377521.91649       272.5044         54.4004   19862372.095    81333168.513 8       212.340          52.800    19862372.4014   81333181.50248       212.3404         53.8004   19862378.852    77944330.268 9       203.492          55.100
G02  22703834.760   119309505.921 7     -2391.086          45.000    22703833.9684  119309505.92045     -2391.0864         35.3004                                                                   22703832.9224   92968460.89845     -1863.1844         35.2004
G08  21973160.532   115469754.381 7     -1648.266          44.100    21973159.6224  115469754.37745     -1648.2664         35.4004   21973163.968    89976447.481 7     -1284.363          46.800    21973163.9454   89976449.47145     -1284.3634         35.0004   21973170.536    86227458.567 8     -1230.848          50.200
E14  20227151.520   106294339.659 6     -4152.715          38.800    20227165.722    79375660.856 7     -3101.055          43.400    20227162.640    81446321.150 7     -3181.949          43.500    20227164.172    80410996.875 7     -3141.500          43.500
G30  23088716.577   121332026.086 6     -1186.387          39.100    23088716.1004  121332026.09146     -1186.3874         37.7004   23088722.415    94544451.071 6      -924.457          41.800    23088722.6894   94544457.06446      -924.4574         37.5004   23088731.232    90605135.609 7      -885.938          46.200
G03  22982787.239   120775394.301 6      3634.078          40.300    22982787.1894  120775394.30846      3634.0784         38.7004   22982793.800    94110729.656 6      2831.750          41.800    22982793.2234   94110736.65746      2831.7504         38.5004   22982802.497    90189498.421 7      2713.762          46.300
G21  20990374.226   110305227.074 7     -1833.809          47.800    20990373.2134  110305227.07146     -1833.8094         41.1004                                                                   20990373.1194   85952146.58046     -1428.9414         41.1004
E12  26695255.730   140284548.487 5      2352.941          34.200    26695271.533   104758001.196 6      1757.066          39.600    26695269.258   107490805.838 6      1802.902          41.200    26695270.504   106124410.890 6      1779.984          40.500
R17  23519246.428   125856196.469 6     -2890.113          38.700    23519249.239   125856196.467 6     -2890.113          36.000    23519248.897    97888157.119 6     -2247.867          37.500    23519248.513    97888158.120 6     -2247.867          37.000
G07  23043278.890   121093210.121 6     -2366.242          39.300    23043278.3464  121093210.12046     -2366.2424         37.3004   23043283.388    94358351.965 6     -1843.824          39.500    23043283.6894   94358349.96046     -1843.8244         37.3004
R03  22994711.198   123092543.707 6      2893.867          41.400    22994713.312   123092543.714 6      2893.867          40.400    22994713.205    95738683.864 6      2250.785          40.700    22994713.755    95738677.867 6      2250.785          40.400
E21  27650795.347   145305804.070 5     -2793.438          34.200    27650815.640   108507592.448 6     -2086.008          38.900    27650812.531   111338216.872 6     -2140.426          39.600    27650814.221   109922910.036 6     -2113.219          39.200
G14  22080097.821   116031741.436 7      2829.832          44.100    22080098.3074  116031741.44545      2829.8324         34.5004   22080099.695    90414364.266 7      2205.066          46.800    22080099.5894   90414366.26145      2205.0664         34.3004   22080111.605    86647151.438 8      2113.188          49.800
E31  24187700.126   127107285.207 7      1409.594          46.900    24187712.536    94917854.836 8      1052.617          50.900    24187709.881    97393963.592 8      1080.078          51.600    24187711.218    96155912.090 8      1066.348          51.300
R16  19778826.196   105654981.251 8     -1983.211          51.800    19778829.182   105654981.247 8     -1983.211          52.000    19778826.684    82176112.658 8     -1542.496          51.200    19778827.026    82176116.656 8     -1542.496          50.700
R15  23019428.913   123008793.481 6     -4321.695          41.300    23019431.976   123008793.490 6     -4321.695          41.000    23019434.842    95673506.000 7     -3361.320          42.000    23019434.643    95673499.999 6     -3361.320          40.700
E33  23554714.070   123780925.675 7       424.980          46.000    23554724.829    92433885.869 8       317.355          52.100    23554722.341    94845192.161 8       325.633          52.600    23554723.567    93639544.389 8       321.492          53.100
R18  20470283.234   109271821.100 8     -1745.820          50.700    20470286.142   109271821.097 8     -1745.820          49.900    20470282.926    84989213.214 8     -1357.859          49.300    20470283.872    84989227.213 8     -1357.859          49.100
E26  24558378.715   129055198.099 7     -1730.438          45.600    24558388.971    96372452.783 8     -1292.207          48.700    24558386.775    98886503.007 8     -1325.918          49.700    24558387.860    97629483.272 8     -1309.062          49.500
J04  36889599.845   193856166.165 6       369.289          38.900    36889604.507   151056775.255 6       287.758          37.700    36889615.362   144762785.068 7       275.766          43.300
J07  37293366.777   195977963.997 6       137.676          38.100    37293369.044   152710111.223 7       107.277          44.500    37293378.861   146347228.844 8       102.809          49.900
J03  38455731.116   202086220.302 7      -457.578          47.600    38455733.029   157469781.090 8      -356.555          49.500    38455742.225   150908575.786 8      -341.699          53.700
> 2023 05 28 02 03  0.0000000  0 28
R02  23324707.600   124465135.692 6       239.102          41.900    23324709.686   124465135.691 6       239.102          40.400    23324709.592    96806242.658 6       185.969          39.900    23324710.502    96806238.656 6       185.969          39.500
R19  20202134.719   108067827.422 6       601.160          39.800    20202137.135   108067827.421 6       601.160          38.800    20202132.852    84052775.924 8       467.570          48.300    20202132.822    84052769.925 8       467.570          48.100
R09  20776842.982   110947232.674 8      2356.996          49.800    20776845.174   110947232.671 8      2356.996          49.000    20776841.631    86292298.607 8      1833.219          49.400    20776841.957    86292296.612 8      1833.219          48.600
J02  37479611.838   196956726.293 7       764.844          45.300    37479614.440   153472791.593 8       595.984          50.300    37479622.869   147078137.750 8       571.148          53.200
G27  24663812.307   129609101.548 5     -2522.230          35.000    24663811.6684  129609101.54142     -2522.2304         17.3004   24663820.355   100994086.076 6     -1965.375          37.100    24663820.5434  100994084.07642     -1965.3754         17.1004   24663830.332    96786021.130 6     -1883.484          41.100
G01  19860862.993   104369605.334 8       255.219          49.200    19860862.9494  104369605.33648       255.2194         53.9004   19860865.603    81326999.750 8       198.871          51.900    19860865.7874   81327012.74748       198.8714         53.7004   19860872.349    77938418.546 9       190.586          55.600
G02  22717495.325   119381291.475 7     -2394.566          45.300    22717494.5224  119381291.46845     -2394.5664         35.5004                                                                   22717492.8584   93024397.65545     -1865.8984         35.6004
G08  21982585.327   115519283.793 7     -1653.848          45.000    21982584.6834  115519283.79045     -1653.8484         35.1004   21982589.527    90015041.782 7     -1288.711          47.000    21982588.6614   90015043.76745     -1288.7114         34.8004   21982595.824    86264444.754 8     -1235.016          50.200
E14  20250926.056   106419276.521 6     -4176.496          37.700    20250940.272    79468957.664 7     -3118.812          42.800    20250937.384    81542051.816 7     -3200.172          43.500    20250938.796    80505510.616 7     -3159.492          43.300
G30  23095531.468   121367837.441 6     -1201.051          38.800    23095531.2444  121367837.44846     -1201.0514         37.7004   23095537.408    94572355.919 6      -935.887          41.900    23095537.7444   94572361.92146      -935.8874         37.6004   23095544.890    90631877.755 7      -896.891          44.900
G03  22962058.448   120666465.106 6      3627.836          40.500    22962058.7114  120666465.10646      3627.8364         39.1004   22962064.847    94025849.879 7      2826.887          42.100    22962064.7594   94025856.87746      2826.8874         39.0004   22962073.281    90108155.346 7      2709.098          46.500
G21  21000866.662   110360365.730 7     -1842.137          47.100    21000865.9774  110360365.73546     -1842.1374         41.4004                                                                   21000865.4614   85995111.75646     -1435.4304         40.8004
G17  24251136.962   127440584.426 6      2387.293          37.100    24251137.1024  127440584.41744      2387.2934         29.3004   24251140.984    99304359.334 5      1860.227          35.200    24251140.2614   99304363.32744      1860.2274         29.4004
E12  26681840.529   140214045.403 5      2346.887          34.300    26681854.750   104705352.931 6      1752.547          39.200    26681852.555   107436784.120 6      1798.266          40.400    26681853.774   106071075.897 6      1775.406          39.900
R17  23535440.122   125942855.461 6     -2887.281          36.400    23535442.917   125942855.461 6     -2887.281          36.200    23535443.230    97955558.422 5     -2245.664          35.100    23535441.848    97955559.438 5     -2245.664          34.800
G07  23056808.535   121164307.944 6     -2373.582          38.600    23056807.8494  121164307.94746     -2373.5824         36.2004   23056813.126    94413752.649 6     -1849.543          38.900    23056812.7514   94413750.65046     -1849.5434         36.2004
R03  22978526.785   123005911.110 6      2881.410          40.900    22978529.531   123005911.118 6      2881.410          40.000    22978529.335    95671303.142 6      2241.098          41.300    22978529.656    95671297.149 6      2241.098          41.400
E21  27666753.063   145389657.754 5     -2796.809          34.100    27666772.951   108570210.269 6     -2088.523          38.900    27666769.690   111402468.222 6     -2143.008          39.500    27666771.165   109986344.621 6     -2115.766          39.100
G14  22063973.145   115947003.728 7      2819.309          44.100    22063973.0414  115947003.73245      2819.3094         35.0004   22063974.456    90348334.916 7      2196.863          46.700    22063974.8394   90348336.91845      2196.8634         34.7004   22063986.175    86583873.318 8      2105.328          48.700
E31  24179683.412   127065159.288 7      1398.832          47.100    24179696.082    94886397.168 8      1044.582          50.600    24179693.578    97361685.290 8      1071.832          51.300    24179694.880    96124044.104 8      1058.207          51.300
R16  19790032.586   105714842.572 8     -2007.492          52.500    19790035.488   105714842.570 8     -2007.492          51.800    19790033.256    82222671.398 8     -1561.383          50.900    19790033.342    82222675.400 8     -1561.383          50.700
R15  23043703.261   123138506.619 6     -4325.961          40.000    23043706.329   123138506.623 6     -4325.961          39.400    23043709.159    95774393.780 6     -3364.637          40.900    23043708.892    95774387.765 6     -3364.637          40.500
E33  23552314.480   123768315.262 7       415.715          45.700    23552325.191    92424469.015 8       310.438          52.700    23552322.676    94835529.647 8       318.535          53.200    23552323.909    93630004.707 8       314.488          53.000
R18  20480110.541   109324280.176 8     -1751.441          50.300    20480113.493   109324280.175 8     -1751.441          50.200    20480110.516    85030014.689 8     -1362.230          49.100    20480111.112    85030028.687 8     -1362.230          48.900
E26  24568269.622   129107177.276 7     -1734.789          45.500    24568280.319    96411268.385 8     -1295.457          49.200    24568277.901    98926331.190 8     -1329.254          49.400    24568279.011    97668805.161 8     -1312.355          49.200
J04  36887494.279   193845100.597 6       368.215          38.100    36887498.876   151048152.771 6       286.922          38.100    36887509.405   144754521.859 7       274.965          43.200
J07  37292580.090   195973831.282 6       137.695          38.900    37292582.962   152706890.917 7       107.293          45.300    37292592.410   146344142.712 8       102.824          50.100
J03  38458340.079   202099928.975 7      -456.418          47.100    38458341.893   157480463.179 8      -355.652          50.100    38458350.809   150918812.789 8      -340.832          53.700
> 2023 05 28 02 03 30.0000000  0 28
R02  23323427.962   124458312.350 6       215.754          39.300    23323430.325   124458312.342 6       215.754          39.500    23323430.416    96800935.655 6       167.809          38.600    23323431.008    96800931.657 6       167.809          38.500
R19  20198794.700   108049960.733 6       590.000          39.600    20198796.952   108049960.728 6       590.000          38.600    20198792.754    84038879.631 8       458.891          48.000    20198793.013    84038873.633 8       458.891          48.400
R09  20763663.654   110876857.134 8      2334.633          49.700    20763666.158   110876857.133 8      2334.633          49.000    20763662.201    86237562.098 8      1815.824          49.000    20763662.940    86237560.101 8      1815.824          48.000
J02  37475248.725   196933798.711 7       763.617          45.900    37475251.257   153454925.929 8       595.027          49.200    37475259.912   147061016.484 8       570.234          53.000
G27  24678216.335   129684793.737 5     -2523.836          34.600    24678214.5744  129684793.73342     -2523.8364         17.3004   24678224.590   101053066.811 6     -1966.625          37.800    24678224.6564  101053064.80842     -1966.6254         17.3004   24678234.001    96842544.297 6     -1884.684          40.800
G01  19859454.617   104362203.570 8       238.145          49.400    19859454.4344  104362203.57349       238.1454         54.0004   19859456.823    81321232.146 8       185.566          52.100    19859457.2874   81321245.14348       185.5664         53.8004   19859463.774    77932891.265 9       177.836          55.900
G02  22731174.253   119453176.077 7     -2397.773          44.500    22731173.4104  119453176.08045     -2397.7734         35.2004                                                                   22731172.8984   93080411.60345     -1868.3954         35.2004
G08  21992042.080   115568977.815 7     -1659.176          44.300    21992041.7864  115568977.80845     -1659.1764         35.2004   21992045.502    90053764.336 7     -1292.867          46.900    21992045.3724   90053766.32745     -1292.8674         35.0004   21992052.297    86301553.861 8     -1238.996          50.100
E14  20274833.697   106544915.106 6     -4199.711          37.700    20274849.059    79562778.465 7     -3136.148          42.700    20274845.594    81638320.157 7     -3217.961          43.200    20274847.230    80600555.184 7     -3177.055          43.200
G30  23102429.162   121404079.880 6     -1215.270          40.100    23102427.8014  121404079.88146     -1215.2704         37.5004   23102435.065    94600596.655 7      -946.961          42.300    23102434.9094   94600602.66146      -946.9614         37.9004   23102441.919    90658941.791 7      -907.508          45.500
G03  22941365.153   120557721.804 6      3621.703          39.300    22941365.0214  120557721.81046      3621.7034         38.6004   22941371.799    93941114.980 7      2822.105          42.300    22941371.4844   93941121.97846      2822.1054         38.6004   22941380.080    90026951.088 7      2704.516          46.200
G21  21011404.966   110415746.602 7     -1850.020          47.200    21011404.2374  110415746.60246     -1850.0204         40.6004                                                                   21011404.1324   86038265.67046     -1441.5744         40.9004
G17  24237509.903   127368974.277 6      2386.766          37.100    24237509.9814  127368974.27045      2386.7664         30.7004   24237512.885    99248559.364 5      1859.816          35.300    24237512.9134   99248563.35045      1859.8164         31.0004
E12  26668459.418   140143724.962 5      2340.828          35.100    26668473.414   104652841.063 6      1748.020          39.300    26668470.742   107382902.353 6      1793.621          40.100    26668471.944   106017879.088 6      1770.820          39.600
R17  23551616.371   126029424.836 5     -2884.113          34.300    23551619.308   126029424.840 5     -2884.113          33.800    23551620.549    98022890.036 5     -2243.199          35.900    23551620.759    98022891.061 5     -2243.199          35.800
G07  23070380.145   121235628.718 6     -2380.812          38.800    23070380.1794  121235628.72146     -2380.8124         36.2004   23070385.319    94469327.065 6     -1855.180          38.800    23070385.3494   94469325.06146     -1855.1804         36.1004
R03  22962413.186   122919650.721 6      2869.078          41.900    22962415.386   122919650.724 6      2869.078          41.000    22962415.578    95604211.905 6      2231.508          41.500    22962415.801    95604205.916 6      2231.508          41.700
E21  27682729.471   145473610.742 5     -2800.043          33.800    27682748.730   108632902.224 6     -2090.941          38.900    27682745.768   111466795.650 6     -2145.488          39.400    27682747.300   110049854.313 6     -2118.215          38.900
G14  22047907.510   115862579.251 7      2808.887          44.000    22047907.3144  115862579.26645      2808.8874         34.7004   22047909.236    90282549.665 7      2188.742          46.400    22047908.8124   90282551.66145      2188.7424         34.7004   22047920.757    86520829.121 8      2097.547          49.000
E31  24171728.619   127023355.513 7      1387.992          46.600    24171741.195    94855180.065 8      1036.488          50.900    24171738.546    97329653.825 8      1063.527          51.500    24171739.886    96092419.822 8      1050.008          51.300
R16  19801373.801   105775426.071 8     -2031.438          52.100    19801376.843   105775426.074 8     -2031.438          52.000    19801374.569    82269791.838 8     -1580.008          51.600    19801374.724    82269795.841 8     -1580.008          50.800
R15  23068000.722   123268341.315 6     -4329.777          40.100    23068003.768   123268341.318 6     -4329.777          39.200    23068005.484    95875376.097 6     -3367.605          39.400    23068005.869    95875370.086 6     -3367.605          39.200
E33  23549966.865   123755979.179 7       406.625          46.600    23549977.780    92415257.013 8       303.648          52.600    23549975.244    94826077.336 8       311.570          53.600    23549976.518    93620672.549 8       307.609          52.700
R18  20489968.842   109376903.070 8     -1756.766          50.900    20489971.518   109376903.061 8     -1756.766          49.700    20489968.625    85070943.575 8     -1366.375          49.500    20489969.361    85070957.572 8     -1366.375          49.100
E26  24578184.843   129159279.998 7     -1738.840          45.000    24578195.231    96450176.240 8     -1298.484          49.300    24578192.928    98966254.041 8     -1332.359          50.400    24578194.055    97708220.515 8     -1315.422          49.400
J04  36885394.093   193834062.489 6       367.340          38.800    36885398.437   151039551.704 6       286.238          38.000    36885408.799   144746279.161 7       274.312          43.400
J07  37291794.470   195969700.530 6       137.777          39.200    37291796.651   152703672.134 7       107.359          45.200    37291806.500   146341058.051 8       102.883          50.000
J03  38460941.188   202113598.351 8      -454.984          48.100    38460942.997   157491114.645 8      -354.531          50.100    38460952.058   150929020.445 8      -339.762          53.500
> 2023 05 28 02 04  0.0000000  0 28
R02  23322280.588   124452187.561 6       192.582          41.500    23322282.956   124452187.564 6       192.582          41.000    23322282.527    96796172.004 6       149.785          38.800    23322283.374    96796168.008 6       149.785          38.300
R19  20195517.165   108032429.503 6       578.898          40.100    20195520.086   108032429.504 6       578.898          39.000    20195515.836    84025244.253 8       450.254          48.100    20195515.633    84025238.253 8       450.254          48.200
R09  20750610.705   110807155.037 8      2312.238          49.900    20750613.248   110807155.038 8      2312.238          48.700    20750609.722    86183349.367 8      1798.406          49.100    20750610.006    86183347.378 7      1798.406          47.900
J02  37470893.007   196910908.477 7       762.438          47.200    37470895.159   153437089.356 8       594.105          48.800    37470904.038   147043923.101 8       569.352          53.300
G27  24692629.381   129760534.668 5     -2525.250          34.400    24692629.1874  129760534.66442     -2525.2504         15.6004   24692637.541   101112085.496 6     -1967.727          36.800    24692637.5964  101112083.49242     -1967.7274         15.6004   24692647.590    96899103.830 6     -1885.738          41.200
G01  19858142.964   104355312.468 8       221.277          49.100    19858142.9854  104355312.46848       221.2774         53.6004   19858145.745    81315862.471 8       172.426          52.500    19858146.0404   81315875.46848       172.4264         53.9004   19858152.439    77927745.329 9       165.242          55.700
G02  22744871.775   119525155.021 7     -2400.840          44.400    22744870.5404  119525155.01845     -2400.8404         34.8004                                                                   22744869.5504   93136499.04945     -1870.7814         34.6004
G08  22001529.194   115618833.577 7     -1664.539          44.800    22001528.8864  115618833.57445     -1664.5394         35.1004   22001533.008    90092612.948 7     -1297.043          46.900    22001532.1654   90092614.94045     -1297.0434         34.8004   22001539.583    86338783.771 8     -1243.000          49.900
E14  20298875.169   106671248.096 6     -4222.453          37.600    20298889.670    79657117.856 7     -3153.129          43.400    20298885.959    81735120.584 7     -3235.387          42.500    20298887.863    80696125.094 7     -3194.258          43.200
G30  23109406.659   121440748.122 6     -1229.332          39.800    23109405.6954  121440748.12246     -1229.3324         36.8004   23109412.466    94629169.200 6      -957.922          41.200    23109411.8954   94629175.19946      -957.9224         36.6004   23109420.228    90686323.789 7      -918.008          45.100
G03  22920708.075   120449164.662 6      3615.484          40.900    22920707.8064  120449164.66346      3615.4844         39.9004   22920713.606    93856525.127 7      2817.262          42.600    22920713.8474   93856532.12246      2817.2624         39.8004   22920722.401    89945885.831 7      2699.875          46.300
G21  21021988.756   110471364.067 7     -1857.699          47.100    21021988.0404  110471364.07446     -1857.6994         41.2004                                                                   21021987.9234   86081603.94446     -1447.5594         40.6004
G17  24223883.348   127297369.941 6      2386.871          36.800    24223883.4414  127297369.93344      2386.8714         29.7004   24223886.830    99192763.933 5      1859.898          34.700    24223886.6134   99192767.90844      1859.8984         29.5004
E12  26655111.853   140073584.435 5      2334.707          34.000    26655125.494   104600463.555 6      1743.449          38.700    26655123.300   107329158.453 6      1788.930          40.800    26655124.647   105964818.376 6      1766.191          39.600
R17  23567779.218   126115901.043 5     -2880.781          35.000    23567781.850   126115901.018 5     -2880.781          34.200    23567780.119    98090149.158 6     -2240.609          36.900    23567780.441    98090150.162 6     -2240.609          36.000
G07  23083993.405   121307166.459 6     -2387.910          38.300    23083993.0604  121307166.46945     -2387.9104         35.5004   23083998.549    94525070.563 6     -1860.711          38.700    23083998.6834   94525068.55245     -1860.7114         35.6004
R03  22946368.323   122833763.744 6      2856.605          41.500    22946370.861   122833763.744 6      2856.605          40.900    22946371.492    95537411.104 6      2221.805          41.800    22946371.079    95537405.102 6      2221.805          41.600
E21  27698721.242   145557658.711 5     -2803.184          33.000    27698742.765   108695665.142 6     -2093.285          38.500    27698739.411   111531195.880 6     -2147.891          38.500    27698741.097   110113435.888 6     -2120.590          38.400
G14  22031901.556   115778467.615 7      2798.586          44.300    22031901.6454  115778467.61945      2798.5864         34.8004   22031902.900    90217008.152 7      2180.719          46.600    22031902.8094   90217010.15345      2180.7194         34.6004   22031914.911    86458018.522 8      2089.855          49.400
E31  24163834.755   126981872.166 7      1377.492          47.300    24163847.155    94824202.246 8      1028.648          50.600    24163844.620    97297867.888 8      1055.480          51.400    24163845.869    96061037.943 8      1042.062          51.400
R16  19812849.796   105836726.280 8     -2055.184          52.500    19812852.492   105836726.281 8     -2055.184          52.200    19812850.080    82317469.709 8     -1598.477          50.900    19812850.365    82317473.711 8     -1598.477          50.600
R15  23092319.495   123398290.545 6     -4333.434          38.800    23092322.238   123398290.535 6     -4333.434          38.000    23092324.247    95976447.462 6     -3370.449          39.400    23092324.781    95976441.456 6     -3370.449          39.800
E33  23547670.865   123743913.617 7       397.730          46.100    23547681.729    92406247.030 8       297.008          52.500    23547679.234    94816832.308 8       304.754          53.300    23547680.520    93611545.043 8       300.883          53.100
R18  20499856.807   109429684.788 8     -1761.953          50.400    20499859.465   109429684.783 8     -1761.953          50.000    20499856.583    85111995.991 8     -1370.406          49.400    20499857.268    85112009.989 8     -1370.406          49.800
E26  24588122.123   129211501.915 7     -1742.645          45.000    24588132.539    96489173.101 8     -1301.324          49.100    24588130.244    99006268.211 8     -1335.273          49.900    24588131.393    97747726.032 8     -1318.301          49.000
J04  36883297.905   193823049.053 6       366.738          38.600    36883302.932   151030969.820 6       285.770          38.800    36883313.280   144738054.869 7       273.863          43.200
J07  37291007.866   195965568.782 6       137.703          39.000    37291010.431   152700452.578 7       107.301          44.700    37291020.190   146337972.636 8       102.832          49.800
J03  38463534.397   202127225.148 7      -453.414          47.700    38463535.951   157501732.937 8      -353.309          49.900    38463545.094   150939196.306 8      -338.586          53.800
> 2023 05 28 02 04 30.0000000  0 28
R02  23321264.204   124446761.493 7       169.320          42.000    23321266.089   124446761.484 6       169.320          41.200    23321266.210    96791951.738 6       131.691          39.600    23321267.040    96791947.742 6       131.691          40.000
R19  20192303.096   108015232.142 6       567.531          39.800    20192304.339   108015232.130 6       567.531          38.900    20192300.663    84011868.551 8       441.414          48.300    20192300.788    84011862.550 8       441.414          48.500
R09  20737685.130   110738128.993 8      2289.535          50.000    20737686.775   110738128.985 8      2289.535          48.800    20737683.120    86129662.464 8      1780.750          49.300    20737683.575    86129660.466 8      1780.750          48.500
J02  37466544.062   196888055.368 7       761.082          46.500    37466546.629   153419281.729 8       593.051          49.700    37466555.276   147026857.451 8       568.340          53.600
G27  24707050.672   129836323.733 5     -2527.113          32.600    24707050.4664  129836323.73842     -2527.1134         15.6004   24707059.619   101171141.717 6     -1969.180          37.500    24707061.6494  101171139.71442     -1969.1804         15.6004   24707070.057    96955699.359 6     -1887.133          41.000
G01  19856928.587   104348930.560 8       204.242          48.600    19856928.5054  104348930.56248       204.2424         53.9004   19856931.303    81310889.567 8       159.152          51.500    19856931.5764   81310902.56548       159.1524         53.8004   19856938.055    77922979.631 9       152.520          54.800
G02  22758585.969   119597226.146 7     -2403.852          44.300    22758585.2954  119597226.14045     -2403.8524         35.1004                                                                   22758584.5244   93192658.33745     -1873.1334         34.6004
G08  22011046.846   115668850.699 7     -1669.859          44.500    22011046.6054  115668850.69445     -1669.8594         34.7004   22011050.932    90131587.286 7     -1301.188          46.900    22011050.6324   90131589.27045     -1301.1884         34.5004   22011057.648    86376134.160 8     -1246.973          50.000
E14  20323046.752   106798270.895 6     -4245.734          38.600    20323061.423    79751972.332 7     -3170.516          43.000    20323058.164    81832449.561 7     -3253.227          43.500    20323059.753    80792216.819 7     -3211.871          42.900
G30  23116464.413   121477839.402 6     -1243.355          38.300    23116463.4614  121477839.39746     -1243.3554         36.5004   23116470.437    94658071.403 6      -968.848          41.500    23116470.0204   94658077.40346      -968.8484         36.1004   23116479.000    90714021.707 7      -928.480          45.800
G03  22900085.660   120340796.314 6      3609.051          40.800    22900085.8744  120340796.31046      3609.0514         40.3004   22900092.052    93772082.394 7      2812.246          42.900    22900091.6594   93772089.38246      2812.2464         40.0004   22900100.263    89864961.581 7      2695.070          46.200
G21  21032616.936   110527215.641 7     -1865.504          47.700    21032616.0944  110527215.64446     -1865.5044         41.0004                                                                   21032616.0834   86125124.63946     -1453.6374         41.0004
G17  24210258.031   127225771.014 6      2386.609          36.500    24210258.1084  127225771.00645      2386.6094         30.4004   24210262.789    99136972.708 5      1859.695          35.300    24210261.7944   99136976.70645      1859.6954         30.0004
E12  26641799.258   140003623.530 5      2328.820          33.600    26641812.774   104548220.164 6      1739.055          38.900    26641809.985   107275552.161 6      1784.422          39.700    26641811.368   105911893.537 6      1761.738          39.400
R17  23583918.847   126202282.586 5     -2877.496          34.600    23583922.885   126202282.581 5     -2877.496          34.000    23583922.596    98157334.702 6     -2238.051          37.100    23583923.159    98157335.700 6     -2238.051          36.400
G07  23097647.462   121378917.594 6     -2395.289          37.800    23097647.5674  121378917.58745     -2395.2894         34.9004   23097652.352    94580980.343 6     -1866.457          38.300    23097652.2684   94580978.32845     -1866.4574         34.8004
R03  22930393.834   122748254.215 6      2844.016          40.300    22930396.295   122748254.223 6      2844.016          40.000    22930396.332    95470903.877 6      2212.012          41.100    22930396.205    95470897.880 6      2212.012          40.700
E21  27714733.377   145641800.105 5     -2806.277          32.600    27714754.467   108758497.773 6     -2095.598          38.400    27714751.232   111595667.637 6     -2150.266          39.500    27714752.517   110177088.082 6     -2122.930          38.600
G14  22015955.366   115694670.906 7      2787.934          44.800    22015955.5234  115694670.91845      2787.9344         35.0004   22015956.846    90151712.084 7      2172.414          46.700    22015957.1794   90151714.07445      2172.4144         34.9004   22015968.835    86395443.116 8      2081.898          49.400
E31  24156001.545   126940710.233 7      1366.668          46.800    24156014.245    94793464.446 8      1020.566          51.100    24156011.665    97266328.232 8      1047.188          51.300    24156012.986    96029899.212 8      1033.875          51.200
R16  19824458.929   105898739.461 8     -2079.016          53.300    19824461.566   105898739.462 8     -2079.016          51.800    19824459.100    82365702.120 8     -1617.012          50.900    19824459.498    82365706.120 8     -1617.012          50.600
R15  23116658.157   123528350.119 6     -4336.996          39.000    23116660.834   123528350.114 6     -4336.996          38.400    23116663.333    96077604.654 6     -3373.219          39.900    23116663.824    96077598.657 6     -3373.219          40.500
E33  23545425.868   123732117.303 7       388.773          45.600    23545436.953    92397438.110 8       290.316          52.700    23545434.426    94807793.590 8       297.891          52.800    23545435.645    93602621.225 8       294.105          52.400
R18  20509773.883   109482623.001 8     -1767.168          51.000    20509776.515   109482622.995 8     -1767.168          49.600    20509773.707    85153170.137 8     -1374.465          49.400    20509774.316    85153184.129 8     -1374.465          49.100
E26  24598082.162   129263841.274 7     -1746.660          45.000    24598092.840    96528257.663 8     -1304.324          49.300    24598090.194    99046372.379 8     -1338.348          49.600    24598091.508    97787320.395 8     -1321.336          49.100
J04  36881206.567   193812060.044 6       365.840          39.800    36881211.445   151022407.001 6       285.070          38.300    36881222.221   144729848.847 7       273.191          43.400
J07  37290221.246   195961435.476 6       137.707          39.000    37290223.918   152697231.815 7       107.305          45.100    37290233.651   146334886.069 8       102.832          50.500
J03  38466119.113   202140808.760 7      -452.020          46.700    38466120.790   157512317.570 8      -352.223          49.700    38466129.959   150949339.914 8      -337.547          53.100
> 2023 05 28 02 05  0.0000000  0 28
R02  23320377.517   124442034.590 6       145.938          41.100    23320380.116   124442034.597 6       145.938          39.800    23320380.445    96788275.326 6       113.508          40.300    23320381.443    96788271.334 6       113.508          39.800
R19  20189149.850   107998366.966 6       556.703          40.200    20189151.670   107998366.959 6       556.703          38.900    20189147.801    83998751.220 8       432.992          48.900    20189147.999    83998745.218 8       432.992          48.900
R09  20724885.091   110669781.597 8      2266.848          50.200    20724887.523   110669781.603 8      2266.848          49.200    20724883.901    86076503.408 8      1763.105          49.800    20724884.197    86076501.413 8      1763.105          48.500
J02  37462202.267   196865239.332 7       759.754          46.700    37462204.786   153401502.979 8       592.016          49.200    37462213.530   147009819.476 8       567.348          52.900
G27  24721483.072   129912160.714 5     -2528.715          34.000    24721482.5294  129912160.74042     -2528.7154         15.4004   24721492.237   101230235.234 6     -1970.426          37.500    24721491.9854  101230233.26142     -1970.4264         15.4004   24721500.108    97012330.606 6     -1888.324          39.200
G01  19855810.492   104343056.382 8       187.223          48.500    19855810.7324  104343056.38348       187.2234         53.9004   19855813.496    81306312.305 8       145.887          52.500    19855813.7534   81306325.29348       145.8874         53.8004   19855820.239    77918593.087 9       139.809          56.000
G02  22772317.643   119669387.252 7     -2406.938          44.200    22772316.7614  119669387.25345     -2406.9384         34.9004                                                                   22772316.3604   93248887.74445     -1875.5354         34.9004
G08  22020596.184   115719028.716 7     -1675.410          46.000    22020595.5484  115719028.71645     -1675.4104         34.9004   22020599.637    90170686.994 7     -1305.516          46.900    22020599.6774   90170688.98345     -1305.5164         34.7004   22020606.209    86413604.714 8     -1251.117          50.300
E14  20347348.845   106925978.671 6     -4268.281          38.300    20347363.289    79847338.295 7     -3187.355          43.100    20347360.077    81930303.345 7     -3270.504          42.300    20347361.684    80888826.693 7     -3228.930          42.700
G30  23123602.677   121515351.119 6     -1257.332          38.000    23123602.0754  121515351.12746     -1257.3324         36.2004   23123608.955    94687301.177 6      -979.742          41.600    23123608.7494   94687307.18946      -979.7424         36.0004   23123616.801    90742033.588 7      -938.918          45.100
G03  22879500.264   120232619.666 6      3602.629          41.000    22879500.1014  120232619.67346      3602.6294         40.8004   22879506.853    93687789.013 7      2807.246          43.400    22879506.5344   93687796.01046      2807.2464         40.7004   22879514.783    89784180.456 7      2690.277          46.200
G21  21043289.496   110583299.161 7     -1873.348          47.800    21043288.5254  110583299.16646     -1873.3484         41.3004                                                                   21043288.5564   86168826.07146     -1459.7504         41.1004
G17  24196634.515   127154176.947 6      2386.441          36.100    24196634.9044  127154176.94445      2386.4414         30.6004   24196637.833    99081185.305 6      1859.566          36.300    24196638.4584   99081189.30045      1859.5664         30.5004
E12  26628518.823   139933842.308 5      2323.129          34.500    26628533.661   104496110.958 6      1734.805          38.600    26628531.200   107222083.588 6      1780.059          40.100    26628532.236   105859104.649 6      1757.430          39.600
R17  23600043.571   126288568.814 5     -2874.598          35.100    23600047.896   126288568.830 5     -2874.598          34.300    23600047.826    98224446.121 5     -2235.797          35.100    23600047.864    98224447.128 5     -2235.797          35.700
G07  23111341.551   121450878.542 6     -2402.234          38.500    23111341.2664  121450878.55145     -2402.2344         34.5004   23111345.979    94637053.606 6     -1871.871          38.000    23111346.0794   94637051.59145     -1871.8714         34.5004
R03  22914489.935   122663125.747 6      2831.172          39.900    22914493.277   122663125.754 6      2831.172          39.400    22914493.618    95404693.046 6      2202.023          39.000    22914493.236    95404687.045 6      2202.023          39.900
E21  27730763.348   145726033.237 5     -2809.324          34.000    27730783.429   108821398.934 6     -2097.871          37.900    27730779.758   111660209.705 6     -2152.598          38.000    27730781.432   110240809.694 6     -2125.234          38.100
G14  22000070.064   115611191.331 7      2777.281          44.600    22000069.8424  115611191.33845      2777.2814         35.0004   22000071.451    90086663.100 7      2164.117          46.600    22000071.2424   90086665.09745      2164.1174         35.1004   22000083.237    86333104.525 8      2073.945          49.500
E31  24148230.324   126899870.657 7      1355.988          46.700    24148242.853    94762967.363 8      1012.586          51.100    24148240.133    97235035.571 8      1039.004          51.500    24148241.521    95999004.341 8      1025.797          51.300
R16  19836200.628   105961462.555 8     -2102.664          52.800    19836203.443   105961462.556 8     -2102.664          51.500    19836200.913    82414486.677 8     -1635.402          51.300    19836201.275    82414490.685 8     -1635.402          50.700
R15  23141017.110   123658516.383 6     -4340.695          38.000    23141019.755   123658516.374 6     -4340.695          37.900    23141022.337    96178844.817 6     -3376.094          39.100    23141022.653    96178838.808 6     -3376.094          39.200
E33  23543232.218   123720589.069 7       379.750          46.300    23543243.142    92388829.376 8       283.578          52.300    23543240.635    94798960.273 8       290.977          52.900    23543241.869    93593900.197 8       287.277          52.700
R18  20519719.678   109535715.567 8     -1772.395          50.500    20519722.635   109535715.561 8     -1772.395          49.800    20519719.509    85194464.337 8     -1378.531          49.800    20519720.276    85194478.333 8     -1378.531          49.200
E26  24608063.852   129316296.388 7     -1750.531          45.600    24608074.545    96567428.667 8     -1307.215          48.900    24608072.140    99086565.237 8     -1341.316          49.800    24608073.375    97827002.325 8     -1324.266          49.400
J04  36879120.475   193801095.362 6       364.965          39.600    36879124.902   151013863.133 6       284.391          38.200    36879135.802   144721660.972 7       272.539          43.500
J07  37289434.502   195957300.363 6       137.848          37.700    37289437.320   152694009.643 7       107.414          45.100    37289446.730   146331798.147 8       102.938          49.600
J03  38468695.524   202154348.524 7      -450.676          47.200    38468697.318   157522868.035 8      -351.176          49.400    38468706.505   150959450.778 8      -336.543          53.500
> 2023 05 28 02 05 30.0000000  0 28
R02  23319624.450   124438010.060 6       122.422          41.000    23319626.141   124438010.056 6       122.422          40.200    23319626.609    96785145.163 6        95.215          39.400    23319626.482    96785141.166 6        95.215          39.200
R19  20186058.580   107981834.293 6       545.578          40.000    20186061.633   107981834.296 6       545.578          38.900    20186057.453    83985892.496 8       424.340          48.600    20186057.409    83985886.490 8       424.340          48.400
R09  20712214.224   110602117.939 8      2243.984          49.700    20712216.161   110602117.935 8      2243.984          49.100    20712212.545    86023876.133 8      1745.320          49.400    20712212.989    86023874.138 8      1745.320          48.500
J02  37457868.055   196842462.732 7       758.512          46.300    37457870.600   153383754.961 8       591.051          49.200    37457879.322   146992810.958 8       566.422          53.300
G27  24735924.167   129988047.508 5     -2530.137          34.600    24735923.6814  129988047.53442     -2530.1374         15.6004   24735933.515   101289367.621 6     -1971.535          37.900    24735932.9024  101289365.60242     -1971.5354         15.7004   24735941.119    97068999.063 6     -1889.391          39.800
G01  19854789.636   104337690.896 8       170.328          49.200    19854789.7634  104337690.89349       170.3284         54.1004   19854792.381    81302131.407 8       132.723          52.500    19854792.6914   81302144.40048       132.7234         53.7004   19854799.196    77914586.398 9       127.195          55.400
G02  22786066.820   119741638.519 7     -2409.953          45.000    22786065.8724  119741638.51645     -2409.9534         34.5004                                                                   22786065.7394   93305187.38845     -1877.8834         34.3004
G08  22030175.468   115769369.836 7     -1680.766          44.200    22030175.1744  115769369.83345     -1680.7664         34.4004   22030179.288    90209913.797 7     -1309.688          46.700    22030179.0384   90209915.78245     -1309.6884         34.5004   22030185.716    86451197.047 8     -1255.117          49.900
E14  20371781.295   107054369.277 6     -4291.070          38.900    20371794.878    79943214.187 7     -3204.371          42.300    20371792.509    82028680.362 7     -3287.961          42.900    20371793.723    80985953.150 7     -3246.164          42.800
G30  23130821.250   121553283.005 6     -1271.211          38.700    23130820.6114  121553283.00546     -1271.2114         36.8004   23130826.964    94716858.409 6      -990.555          40.800    23130826.7214   94716864.39146      -990.5554         37.1004   23130835.299    90770359.193 7      -949.281          46.100
G03  22858951.997   120124639.874 6      3595.879          40.300    22858952.4274  120124639.87746      3595.8794         40.3004   22858958.478    93603649.063 7      2801.984          43.000    22858957.9364   93603656.05946      2801.9844         40.0004   22858966.471    89703546.340 7      2685.234          46.000
G21  21054005.714   110639613.874 8     -1880.945          48.200    21054004.8594  110639613.87146     -1880.9454         41.0004                                                                   21054004.8084   86212707.65546     -1465.6724         41.0004
G17  24183012.679   127082589.483 6      2385.965          36.300    24183012.2734  127082589.47845      2385.9654         30.1004   24183016.493    99025403.010 6      1859.195          36.500    24183015.9824   99025407.02445      1859.1954         30.0004
E12  26615275.288   139864243.187 5      2316.898          34.500    26615289.468   104444137.703 6      1730.152          39.900    26615286.604   107168754.500 6      1775.285          38.900    26615288.195   105806453.473 6      1752.719          39.400
R17  23616152.403   126374761.196 5     -2871.445          33.900    23616155.773   126374761.164 5     -2871.445          33.400    23616155.783    98291484.460 5     -2233.348          35.700    23616155.241    98291485.476 6     -2233.348          36.000
G07  23125074.498   121523048.463 6     -2408.844          37.800    23125074.7254  121523048.44545     -2408.8444         33.7004   23125078.665    94693289.660 6     -1877.023          37.000    23125079.5344   94693287.64945     -1877.0234         33.6004
R03  22898660.936   122578385.230 6      2818.176          40.800    22898663.790   122578385.235 6      2818.176          40.300    22898663.115    95338783.911 6      2191.914          41.700    22898663.402    95338777.911 6      2191.914          41.400
E21  27746810.395   145810358.747 5     -2812.488          35.200    27746830.062   108884369.070 6     -2100.234          38.800    27746826.602   111724822.586 6     -2155.023          37.500    27746828.389   110304601.206 6     -2127.629          38.100
G14  21984245.679   115528033.513 7      2766.508          44.700    21984245.6044  115528033.52045      2766.5084         34.6004   21984246.622    90021864.829 7      2155.723          46.300    21984246.3944   90021866.82745      2155.7234         34.6004   21984258.709    86271006.196 8      2065.898          49.500
E31  24140520.862   126859356.896 7      1344.941          46.500    24140533.280    94732713.586 8      1004.340          51.400    24140530.696    97203992.565 8      1030.539          50.800    24140531.969    95968355.948 8      1017.441          51.100
R16  19848075.412   106024895.025 8     -2126.207          52.700    19848078.126   106024895.021 8     -2126.207          51.800    19848075.863    82463822.971 8     -1653.715          51.000    19848076.196    82463826.975 8     -1653.715          50.700
R15  23165395.513   123788787.024 6     -4344.211          37.400    23165398.851   123788787.023 6     -4344.211          37.700    23165401.440    96280166.158 6     -3378.832          38.600    23165401.484    96280160.150 6     -3378.832          38.600
E33  23541090.184   123709330.142 7       370.777          46.100    23541100.654    92380421.750 8       276.879          52.700    23541098.014    94790333.315 8       284.102          52.900    23541099.313    93585382.909 8       280.492          52.300
R18  20529694.479   109588962.703 8     -1777.418          50.400    20529697.560   109588962.698 8     -1777.418          49.600    20529694.854    85235878.741 8     -1382.438          49.500    20529695.297    85235892.744 8     -1382.438          49.200
E26  24618067.730   129368867.993 7     -1754.340          45.400    24618078.746    96606686.662 8     -1310.059          48.900    24618076.135    99126847.352 8     -1344.234          49.900    24618077.411    97866772.384 8     -1327.145          49.000
J04  36877038.768   193790157.316 6       364.215          38.500    36877043.500   151005340.016 6       283.805          38.000    36877054.172   144713492.997 7       271.980          44.300
J07  37288647.697   195953165.454 6       137.633          38.500    37288650.513   152690787.627 7       107.246          45.400    37288659.924   146328710.381 8       102.777          49.900
J03  38471264.502   202167846.220 7      -449.266          47.700    38471265.790   157533385.728 8      -350.078          49.600    38471275.032   150969530.231 8      -335.492          53.500
> 2023 05 28 02 06  0.0000000  0 28
R02  23319000.452   124434686.743 6        99.105          40.500    23319003.495   124434686.748 6        99.105          40.200    23319004.034    96782560.372 6        77.082          38.700    23319003.874    96782556.380 6        77.082          38.800
R19  20183030.677   107965631.371 6       534.766          40.100    20183032.403   107965631.365 6       534.766          39.200    20183028.422    83973290.228 8       415.930          48.800    20183028.587    83973284.229 8       415.930          48.400
R09  20699670.466   110535139.473 8      2221.250          49.500    20699673.429   110535139.479 8      2221.250          48.900    20699669.537    85971781.799 8      1727.637          48.900    20699669.886    85971779.805 8      1727.637          48.900
J02  37453541.254   196819724.285 7       757.387          46.900    37453543.686   153366036.674 8       590.172          49.200    37453552.366   146975830.928 8       565.582          53.000
G27  24750374.703   130063982.582 5     -2531.770          34.500    24750373.7604  130063982.60542     -2531.7704         16.1004   24750382.663   101348537.602 6     -1972.809          37.500    24750382.4124  101348535.58942     -1972.8094         15.5004   24750391.902    97125703.599 6     -1890.605          40.200
G01  19853864.960   104332831.411 8       153.727          48.900    19853864.9624  104332831.41048       153.7274         53.7004   19853867.738    81298344.806 8       119.785          52.500    19853868.0184   81298357.79648       119.7854         53.4004   19853874.389    77910957.574 9       114.797          55.600
G02  22799832.615   119813977.029 7     -2412.730          44.400    22799831.5394  119813977.03745     -2412.7304         34.3004                                                                   22799831.0884   93361555.02945     -1880.0474         34.2004
G08  22039785.618   115819872.516 7     -1686.066          44.100    22039785.4024  115819872.50845     -1686.0664         34.7004   22039789.510    90249266.483 7     -1313.816          46.500    22039788.9634   90249268.46545     -1313.8164         34.4004   22039796.019    86488910.032 8     -1259.074          48.900
E14  20396341.710   107183436.820 6     -4313.453          37.200    20396356.696    80039595.573 7     -3221.082          42.800    20396353.310    82127576.069 7     -3305.113          42.600    20396354.966    81083591.694 7     -3263.098          43.100
G30  23138118.054   121591631.203 6     -1284.930          38.600    23138117.6164  121591631.21146     -1284.9304         36.2004   23138124.562    94746739.993 6     -1001.246          41.500    23138124.2174   94746746.00146     -1001.2464         36.0004   23138133.419    90798995.707 7      -959.527          46.200
G03  22838442.397   120016858.681 6      3589.422          41.300    22838442.4494  120016858.68046      3589.4224         40.9004   22838448.576    93519663.809 7      2796.953          43.500    22838448.2034   93519670.80246      2796.9534         40.6004   22838456.527    89623060.502 7      2680.414          46.500
G21  21064765.544   110696156.170 8     -1888.492          48.400    21064764.6494  110696156.17446     -1888.4924         41.1004                                                                   21064764.3214   86256766.58446     -1471.5514         40.8004
G17  24169391.226   127011007.180 6      2386.055          36.500    24169390.0524  127011007.17145      2386.0554         31.8004   24169394.033    98969624.795 6      1859.266          37.400    24169394.1554   98969628.79845      1859.2664         31.1004
E12  26602064.989   139794824.832 5      2310.789          34.900    26602079.539   104392299.454 6      1725.590          39.900    26602075.987   107115563.913 6      1770.605          38.700    26602077.864   105753939.061 6      1748.098          39.400
R17  23632241.637   126460857.832 5     -2868.477          32.700    23632244.990   126460857.829 5     -2868.477          32.300    23632245.161    98358448.463 5     -2231.039          35.300    23632244.535    98358449.466 5     -2231.039          34.800
G07  23138847.558   121595422.669 6     -2415.895          37.800    23138847.5954  121595422.66645     -2415.8954         33.9004   23138852.959    94749684.971 6     -1882.516          37.800    23138852.2944   94749682.94845     -1882.5164         33.7004
R03  22882903.163   122494034.876 6      2805.215          41.500    22882905.994   122494034.871 6      2805.215          41.100    22882906.058    95273178.247 6      2181.832          40.800    22882905.982    95273172.255 6      2181.832          41.400
E21  27762873.507   145894773.902 5     -2814.992          34.800    27762894.084   108947406.176 6     -2102.105          38.900    27762890.686   111789504.182 6     -2156.941          38.500    27762892.310   110368460.550 6     -2129.523          38.800
G14  21968482.442   115445198.438 7      2755.902          44.700    21968482.0494  115445198.44845      2755.9024         35.0004   21968483.619    89957318.075 7      2147.457          46.800    21968483.3594   89957320.05945      2147.4574         34.8004   21968495.920    86209148.884 8      2057.980          49.900
E31  24132873.224   126819168.725 7      1334.207          46.800    24132885.653    94702702.947 8       996.324          51.100    24132883.145    97173199.039 8      1022.312          51.900    24132884.417    95937953.869 8      1009.320          51.200
R16  19860082.327   106089032.367 8     -2149.609          52.600    19860084.835   106089032.368 8     -2149.609          52.100    19860082.612    82513707.504 8     -1671.918          50.900    19860082.927    82513711.510 8     -1671.918          50.900
R15  23189794.110   123919157.068 6     -4347.113          39.500    23189796.132   123919157.055 6     -4347.113          39.000    23189798.273    96381564.757 6     -3381.090          38.700    23189798.566    96381558.745 6     -3381.090          38.300
E33  23538998.284   123698338.175 7       362.000          46.400    23539008.903    92372213.475 8       270.324          52.900    23539006.300    94781910.910 8       277.375          53.100    23539007.593    93577067.568 8       273.848          52.600
R18  20539698.185   109642361.039 8     -1782.387          50.600    20539700.741   109642361.031 8     -1782.387          49.500    20539698.168    85277410.749 8     -1386.301          49.600    20539698.806    85277424.749 8     -1386.301          49.400
E26  24628093.620   129421553.205 7     -1757.922          45.000    24628104.253    96646029.492 8     -1312.734          48.800    24628101.913    99167216.520 8     -1346.977          49.500    24628103.030    97906628.380 8     -1329.855          48.900
J04  36874962.388   193779244.628 6       363.285          39.200    36874967.047   150996836.634 6       283.078          38.000    36874977.270   144705343.934 7       271.285          43.600
J07  37287860.594   195949029.244 6       137.863          37.300    37287863.227   152687564.600 7       107.426          44.700    37287872.793   146325621.646 8       102.949          49.700
J03  38473824.542   202181300.128 7      -447.680          47.600    38473826.281   157543869.289 8      -348.840          49.800    38473835.236   150979576.978 8      -334.305          53.100
> 2023 05 28 02 06 30.0000000  0 28
R02  23318510.097   124432064.132 6        75.727          40.700    23318511.527   124432064.116 6        75.727          39.800    23318512.154    96780520.571 6        58.898          40.100    23318513.073    96780516.584 6        58.898          39.400
R19  20180062.693   107949755.898 6       523.699          40.100    20180065.278   107949755.894 6       523.699          39.000    20180060.788    83960942.653 8       407.320          48.400    20180060.667    83960936.658 8       407.320          48.600
R09  20687256.493   110468848.478 8      2198.180          50.500    20687259.040   110468848.482 8      2198.180          49.200    20687255.177    85920222.156 8      1709.695          49.400    20687255.693    85920220.164 8      1709.695          48.600
J02  37449221.133   196797023.135 7       755.996          47.700    37449223.801   153348347.453 8       589.090          49.500    37449232.443   146958878.751 8       564.543          53.400
G27  24764833.450   130139964.884 5     -2533.523          33.600    24764833.5334  130139964.86842     -2533.5234         16.9004   24764842.149   101407744.356 6     -1974.172          37.700    24764842.8834  101407742.36342     -1974.1724         17.0004   24764850.885    97182443.381 6     -1891.914          39.500
G01  19853036.130   104328475.638 8       136.699          48.500    19853036.0644  104328475.63748       136.6994         53.8004   19853038.649    81294950.699 8       106.520          52.600    19853039.0894   81294963.68748       106.5204         53.9004   19853045.532    77907704.886 9       102.082          55.400
G02  22813614.194   119886400.168 7     -2415.691          44.400    22813613.6504  119886400.17045     -2415.6914         34.4004                                                                   22813612.6154   93417988.61245     -1882.3594         34.3004
G08  22049426.470   115870535.476 7     -1691.469          44.800    22049426.4564  115870535.46945     -1691.4694         34.8004   22049430.746    90288744.052 7     -1318.027          46.600    22049430.1404   90288746.03945     -1318.0274         34.7004   22049437.182    86526742.691 8     -1263.109          49.900
E14  20421030.290   107313175.694 6     -4335.992          38.300    20421045.349    80136478.266 7     -3237.918          42.300    20421042.338    82226986.170 7     -3322.383          43.300    20421043.756    81181738.089 7     -3280.152          42.900
G30  23145493.475   121630392.286 6     -1299.168          37.600    23145492.9254  121630392.29045     -1299.1684         35.9004   23145500.959    94776943.330 6     -1012.340          41.600    23145500.7094   94776949.32345     -1012.3404         35.7004   23145508.759    90827940.535 7      -970.156          45.500
G03  22817969.526   119909278.073 6      3582.602          40.200    22817970.1564  119909278.06646      3582.6024         41.1004   22817976.897    93435834.900 7      2791.641          44.100    22817976.1834   93435841.88746      2791.6414         40.9004   22817985.021    89542724.480 7      2675.320          47.200
G21  21075567.599   110752922.555 7     -1896.008          47.900    21075566.9074  110752922.55946     -1896.0084         41.0004                                                                   21075566.8914   86301000.12046     -1477.4104         41.2004
G17  24155769.248   126939428.706 5      2386.020          35.600    24155769.6214  126939428.69744      2386.0204         29.4004   24155772.135    98913849.536 6      1859.238          36.200    24155772.9914   98913853.53644      1859.2384         29.4004
E12  26588889.980   139725586.282 5      2304.871          34.800    26588903.192   104340595.441 6      1721.168          38.700    26588900.746   107062511.099 6      1766.070          39.100    26588902.061   105701560.642 6      1743.621          39.100
R17  23648314.322   126546856.873 5     -2864.879          33.600    23648316.453   126546856.824 5     -2864.879          32.000    23648313.946    98425336.463 5     -2228.238          33.800    23648314.890    98425337.479 5     -2228.238          33.500
G07  23152658.901   121667996.841 6     -2422.270          39.000    23152658.3274  121667996.83645     -2422.2704         34.5004   23152663.018    94806236.018 6     -1887.480          37.500    23152662.6744   94806234.02545     -1887.4804         34.5004
R03  22867219.544   122410078.046 6      2792.004          41.600    22867222.097   122410078.045 6      2792.004          41.000    22867221.396    95207878.673 6      2171.559          41.900    22867221.804    95207872.684 6      2171.559          41.700
E21  27778954.065   145979276.355 5     -2818.246          34.300    27778974.550   109010508.445 6     -2104.535          38.500    27778971.517   111854252.623 6     -2159.438          39.100    27778973.096   110432385.908 6     -2131.984          38.800
G14  21952780.887   115362687.592 7      2744.930          44.900    21952781.0144  115362687.59245      2744.9304         34.9004   21952782.758    89893023.927 7      2138.906          47.000    21952782.2934   89893025.93245      2138.9064         35.0004   21952794.395    86147533.679 8      2049.785          49.100
E31  24125287.754   126779306.316 7      1323.242          47.400    24125300.161    94672935.572 8       988.137          51.700    24125297.517    97142655.126 8      1013.914          51.400    24125298.840    95907798.222 8      1001.023          51.300
R16  19872219.992   106153870.484 8     -2172.984          52.100    19872222.830   106153870.485 8     -2172.984          51.400    19872220.510    82564137.084 8     -1690.102          50.900    19872220.830    82564141.082 8     -1690.102          50.600
R15  23214208.723   124049621.426 6     -4350.371          39.900    23214210.877   124049621.434 6     -4350.371          38.700    23214212.805    96483036.837 6     -3383.621          37.000    23214213.284    96483030.828 6     -3383.621          38.000
E33  23536957.061   123687611.129 7       353.141          46.200    23536967.573    92364203.022 8       263.711          52.300    23536965.131    94773691.487 8       270.590          53.100    23536966.339    93568952.630 8       267.148          52.700
R18  20549729.336   109695907.615 8     -1787.391          50.700    20549731.844   109695907.617 8     -1787.391          49.700    20549729.505    85319058.073 8     -1390.195          49.300    20549729.835    85319072.071 8     -1390.195          49.700
E26  24638140.916   129474349.562 7     -1761.789          45.300    24638151.321    96685455.323 8     -1315.621          48.600    24638148.698    99207670.854 8     -1349.941          49.600    24638149.950    97946568.464 8     -1332.781          49.600
J04  36872890.289   193768356.258 6       362.551          39.600    36872894.917   150988352.229 6       282.508          38.400    36872905.384   144697213.062 7       270.738          43.700
J07  37287072.446   195944890.517 6       137.855          38.000    37287075.547   152684339.608 7       107.418          44.900    37287085.344   146322531.029 8       102.941          50.100
J03  38476376.121   202194708.738 7      -446.270          47.400    38476377.800   157554317.558 8      -347.742          50.200    38476386.848   150989589.901 8      -333.254          53.500
> 2023 05 28 02 07  0.0000000  0 28
R02  23318149.392   124430144.818 6        52.305          38.900    23318151.283   124430144.809 6        52.305          38.900    23318152.344    96779027.804 6        40.680          37.800    23318153.211    96779023.821 6        40.680          37.300
R19  20177155.711   107934207.679 6       512.754          40.100    20177157.731   107934207.677 6       512.754          39.100    20177153.894    83948849.630 8       398.809          48.600    20177154.128    83948843.631 8       398.809          48.000
R09  20674972.252   110403249.237 8      2175.102          50.300    20674974.501   110403249.231 8      2175.102          49.500    20674970.782    85869200.526 8      1691.746          49.200    20674971.197    85869198.533 8      1691.746          49.300
J02  37444909.007   196774361.321 7       754.832          46.600    37444911.450   153330688.880 8       588.180          49.600    37444920.083   146941955.956 8       563.672          53.100
G27  24779301.814   130215996.216 5     -2535.234          32.100    24779301.5864  130215996.25042     -2535.2344         15.8004   24779311.056   101466989.354 6     -1975.508          36.800    24779311.6034  101466987.34842     -1975.5084         15.5004   24779319.716    97239219.792 6     -1893.191          39.500
G01  19852302.891   104324624.242 8       120.172          48.300    19852303.0984  104324624.24148       120.1724         53.9004   19852305.810    81291949.612 8        93.641          52.400    19852306.1584   81291962.60749        93.6414         54.0004   19852312.680    77904828.854 9        89.738          55.000
G02  22827411.627   119958907.686 7     -2418.320          43.900    22827411.5474  119958907.68745     -2418.3204         33.6004                                                                   22827409.8414   93474487.95245     -1884.4064         33.6004
G08  22059098.377   115921360.749 7     -1696.809          44.300    22059098.0324  115921360.74545     -1696.8094         34.4004   22059102.580    90328348.105 7     -1322.188          46.700    22059102.0574   90328350.10345     -1322.1884         34.4004   22059108.952    86564696.574 8     -1267.098          49.100
E14  20445845.715   107443583.478 6     -4357.984          37.500    20445861.059    80233860.484 7     -3254.340          43.100    20445858.148    82326908.828 7     -3339.234          42.900    20445859.557    81280390.527 7     -3296.789          42.900
G30  23152949.674   121669565.604 6     -1312.852          39.700    23152948.9784  121669565.61846     -1312.8524         37.6004   23152955.310    94807467.847 6     -1023.000          41.500    23152955.2484   94807473.84746     -1023.0004         37.7004   23152963.509    90857193.190 7      -980.375          45.600
G03  22797536.963   119801903.080 6      3575.504          41.000    22797537.2524  119801903.07546      3575.5044         41.2004   22797544.091    93352166.185 7      2786.105          43.800    22797543.1574   93352173.18346      2786.1054         41.0004   22797551.552    89462542.004 7      2670.020          46.700
G21  21086412.589   110809912.691 7     -1903.336          47.400    21086411.7134  110809912.69746     -1903.3364         40.6004                                                                   21086411.7334   86345408.01546     -1483.1214         40.5004
G17  24142148.800   126867855.873 6      2385.754          36.400    24142149.0034  126867855.86545      2385.7544         30.6004   24142153.050    98858078.636 6      1859.031          36.400    24142152.9674   98858082.62645      1859.0314         30.3004
E12  26575748.022   139656529.650 5      2298.707          34.200    26575762.569   104289027.302 6      1716.570          39.200    26575759.464   107009597.696 6      1761.348          39.900    26575761.222   105649319.873 6      1738.957          39.600
R17  23664366.339   126632759.300 5     -2861.551          30.800    23664369.105   126632759.308 5     -2861.551          30.500    23664368.491    98492149.506 5     -2225.652          31.700    23664367.952    98492150.483 5     -2225.652          31.500
G07  23166506.390   121740769.773 6     -2428.949          38.600    23166506.5504  121740769.77445     -2428.9494         34.6004   23166511.956    94862941.988 6     -1892.688          38.000    23166511.9874   94862939.97545     -1892.6884         35.0004
R03  22851610.363   122326520.784 6      2778.645          41.500    22851613.014   122326520.787 6      2778.645          40.900    22851612.625    95142889.895 7      2161.168          42.000    22851613.179    95142883.900 7      2161.168          42.600
E21  27795052.250   146063866.605 6     -2820.906          36.000    27795071.951   109073676.285 6     -2106.520          38.800    27795068.692   111919068.332 6     -2161.473          39.800    27795070.265   110496377.685 6     -2133.996          39.300
G14  21937142.350   115280505.201 7      2733.977          44.600    21937142.3264  115280505.21345      2733.9774         35.5004   21937143.786    89828985.747 7      2130.371          47.200    21937143.7554   89828987.73845      2130.3714         35.3004   21937155.681    86086163.759 8      2041.605          49.700
E31  24117764.779   126739772.860 7      1312.332          46.700    24117777.154    94643413.847 8       979.988          50.700    24117774.640    97112363.267 8      1005.555          51.200    24117775.884    95877891.431 8       992.770          51.100
R16  19884489.055   106219408.227 8     -2196.156          52.600    19884491.707   106219408.222 8     -2196.156          51.500    19884489.510    82615110.803 8     -1708.121          50.600    19884489.702    82615114.808 8     -1708.121          50.800
R15  23238639.761   124180178.601 6     -4353.223          38.300    23238642.785   124180178.611 6     -4353.223          38.200    23238644.304    96584581.090 6     -3385.840          38.800    23238645.609    96584575.083 6     -3385.840          38.000
E33  23534966.264   123677150.021 7       344.348          46.500    23534976.899    92356391.158 8       257.141          51.600    23534974.451    94765675.836 8       263.848          53.200    23534975.657    93561038.873 8       260.496          52.900
R18  20559788.212   109749602.601 8     -1792.223          50.600    20559790.867   109749602.602 8     -1792.223          49.900    20559788.116    85360820.815 8     -1393.949          48.700    20559788.781    85360834.807 8     -1393.949          49.400
E26  24648208.521   129527257.601 7     -1765.383          45.700    24648219.352    96724964.543 8     -1318.305          49.100    24648216.772    99248210.758 8     -1352.695          49.400    24648217.993    97986593.025 8     -1335.500          49.200
J04  36870822.968   193757494.337 6       361.707          38.800    36870828.409   150979888.427 6       281.852          38.800    36870838.014   144689101.918 7       270.105          43.400
J07  37286285.311   195940751.108 6       138.027          37.800    37286287.876   152681114.097 7       107.555          44.900    37286297.534   146319439.909 8       103.070          49.700
J03  38478919.321   202208073.715 7      -444.703          47.000    38478920.809   157564731.828 8      -346.523          49.600    38478930.056   150999570.242 9      -332.082          54.100
> 2023 05 28 02 07 30.0000000  0 28
R02  23317921.532   124428923.882 6        28.883          41.800    23317923.206   124428923.873 6        28.883          40.800    23317923.613    96778078.227 6        22.465          36.800    23317924.259    96778074.242 6        22.465          36.900
R19  20174309.012   107918980.423 6       502.133          40.200    20174311.102   107918980.415 6       502.133          39.100    20174307.457    83937006.226 8       390.547          48.200    20174307.334    83937000.227 7       390.547          47.700
R09  20662816.702   110338339.444 8      2151.906          50.500    20662818.800   110338339.444 8      2151.906          49.800    20662815.080    85818715.157 8      1673.707          49.100    20662815.496    85818713.161 8      1673.707          48.700
J02  37440603.224   196751733.804 7       753.531          45.900    37440605.484   153313057.032 8       587.168          49.600    37440614.164   146925058.761 8       562.703          53.300
G27  24793778.867   130292070.912 5     -2536.781          34.100    24793778.1294  130292070.90942     -2536.7814         15.6004   24793786.906   101526268.114 6     -1976.711          36.400    24793786.5884  101526266.11942     -1976.7114         15.3004   24793796.415    97296028.564 6     -1894.348          39.000
G01  19851665.173   104321270.658 8       103.418          49.100    19851665.0564  104321270.66648       103.4184         53.9004   19851667.833    81289336.445 8        80.586          52.300    19851668.0524   81289349.43648        80.5864         53.6004   19851674.551    77902324.566 9        77.227          55.200
G02  22841224.041   120031492.547 7     -2420.742          43.800    22841223.5954  120031492.54145     -2420.7424         34.1004                                                                   22841222.5624   93531047.55445     -1886.2934         33.9004
G08  22068800.143   115972342.874 7     -1702.211          44.800    22068799.6524  115972342.87045     -1702.2114         34.6004   22068803.830    90368074.396 7     -1326.398          46.700    22068803.5794   90368076.39045     -1326.3984         34.8004   22068810.426    86602767.584 8     -1271.129          49.400
E14  20470787.243   107574650.301 6     -4380.195          37.100    20470802.511    80331734.849 7     -3270.922          42.600    20470799.612    82427336.443 7     -3356.254          43.400    20470800.983    81379541.519 7     -3313.586          42.800
G30  23160480.942   121709143.393 6     -1326.070          38.600    23160480.2004  121709143.40546     -1326.0704         37.0004   23160486.907    94838307.577 6     -1033.301          41.300    23160486.4264   94838313.57346     -1033.3014         37.0004   23160494.589    90886747.882 7      -990.246          45.800
G03  22777142.999   119694731.364 6      3568.973          41.000    22777142.9934  119694731.36346      3568.9734         40.8004   22777149.757    93268655.898 7      2781.016          44.000    22777149.2564   93268662.90246      2781.0164         40.6004   22777157.552    89382511.339 7      2665.141          47.200
G21  21097298.535   110867119.102 7     -1910.602          46.900    21097297.7354  110867119.10346     -1910.6024         41.0004                                                                   21097297.6684   86389984.43046     -1488.7814         40.7004
G17  24128528.978   126796283.104 6      2385.594          36.300    24128529.4434  126796283.09645      2385.5944         30.8004   24128532.604    98802307.811 6      1858.906          37.000    24128533.0384   98802311.79845      1858.9064         30.8004
E12  26562640.225   139587649.760 5      2292.852          35.400    26562654.835   104237591.142 6      1712.195          40.000    26562652.179   106956819.706 6      1756.859          39.600    26562653.525   105597212.800 6      1734.527          39.800
R17  23680399.766   126718559.631 5     -2858.430          33.700    23680404.386   126718559.613 5     -2858.430          32.500    23680403.214    98558882.919 5     -2223.223          32.500    23680402.746    98558883.907 5     -2223.223          32.300
G07  23180391.305   121813732.955 6     -2435.562          37.600    23180391.0254  121813732.96145     -2435.5624         33.6004   23180395.751    94919796.177 6     -1897.844          38.100    23180395.3574   94919794.17445     -1897.8444         33.6004
R03  22836076.016   122243361.852 7      2765.078          42.100    22836078.149   122243361.855 6      2765.078          41.200    22836077.551    95078210.922 7      2150.617          42.200    22836077.745    95078204.926 6      2150.617          41.800
E21  27811163.747   146148537.971 5     -2823.812          35.600    27811184.458   109136904.696 6     -2108.691          38.900    27811181.301   111983946.191 6     -2163.699          39.600    27811182.830   110560430.819 6     -2136.195          39.200
G14  21921565.452   115198648.580 7      2722.941          44.300    21921565.4374  115198648.58845      2722.9414         35.3004   21921566.348    89765201.404 7      2121.773          46.500    21921566.6804   89765203.40345      2121.7734         35.2004   21921578.941    86025037.103 8      2033.367          49.800
E31  24110303.318   126700564.194 7      1301.328          46.600    24110315.968    94614134.654 8       971.773          51.100    24110313.382    97082320.271 8       997.121          51.100    24110314.678    95848230.338 8       984.445          51.200
R16  19896886.868   106285636.955 8     -2219.281          52.600    19896889.797   106285636.953 8     -2219.281          52.000    19896887.268    82666621.972 8     -1726.109          50.000    19896887.873    82666625.976 8     -1726.109          50.900
R15  23263087.424   124310819.042 6     -4356.266          37.900    23263090.482   124310819.040 6     -4356.266          37.500    23263093.430    96686190.017 6     -3388.207          39.800    23263093.489    96686184.011 6     -3388.207          39.600
E33  23533025.160   123666948.561 7       335.617          46.700    23533035.685    92348773.183 8       250.621          52.900    23533033.170    94757859.134 8       257.160          53.100    23533034.423    93553321.535 8       253.891          53.000
R18  20569872.873   109803438.547 8     -1797.062          50.200    20569876.095   109803438.550 8     -1797.062          49.300    20569873.158    85402693.185 8     -1397.715          49.300    20569873.945    85402707.186 8     -1397.715          49.200
E26  24658297.379   129580270.595 7     -1769.020          45.300    24658307.250    96764552.151 8     -1321.020          48.800    24658305.001    99288831.085 8     -1355.480          50.100    24658306.162    98026696.994 8     -1338.250          49.000
J04  36868760.088   193746653.683 6       360.727          38.800    36868765.578   150971441.203 6       281.086          39.100    36868775.337   144681006.664 7       269.375          43.500
J07  37285496.298   195936605.669 6       137.945          39.000    37285499.173   152677883.871 7       107.488          45.300    37285508.764   146316344.284 8       103.012          49.400
J03  38481453.215   202221389.353 7      -443.238          47.900    38481454.862   157575107.645 8      -345.383          50.000    38481463.925   151009513.735 8      -330.988          53.400
> 2023 05 28 02 08  0.0000000  0 27
R02  23317824.701   124428408.384 6         5.434          41.100    23317826.507   124428408.372 6         5.434          40.300    23317826.933    96777677.357 6         4.227          37.200    23317827.474    96777673.351 6         4.227          37.100
R19  20171524.172   107904078.970 6       491.508          40.400    20171526.047   107904078.959 6       491.508          39.200    20171521.644    83925416.232 8       382.285          48.300    20171521.865    83925410.230 7       382.285          47.900
R09  20650792.071   110274128.551 8      2128.730          50.400    20650794.269   110274128.552 8      2128.730          49.100    20650790.373    85768773.365 8      1655.680          49.000    20650790.778    85768771.368 8      1655.680          48.900
J02  37436305.119   196729147.307 7       752.230          46.600    37436307.658   153295457.155 8       586.152          49.300    37436316.158   146908192.213 8       561.730          53.200
G27  24808264.674   130368195.665 5     -2538.395          32.300    24808263.2404  130368195.65742     -2538.3954         14.9004   24808273.232   101585585.880 6     -1977.969          36.300    24808274.6324  101585583.90142     -1977.9694         14.7004   24808282.998    97352874.684 6     -1895.555          39.200
G01  19851122.748   104318420.168 8        86.617          49.500    19851122.7274  104318420.17149        86.6174         54.0004   19851125.349    81287115.293 8        67.496          52.000    19851125.5564   81287128.28648        67.4964         53.7004   19851132.084    77900195.962 9        64.684          55.300
G02  22855052.204   120104159.901 7     -2423.492          44.000    22855051.6434  120104159.90845     -2423.4924         33.9004                                                                   22855051.2364   93587671.45445     -1888.4344         33.8004
G08  22078532.533   116023488.285 7     -1707.492          45.200    22078532.2884  116023488.27845     -1707.4924         34.3004   22078536.674    90407927.904 7     -1330.512          46.800    22078536.1914   90407929.89345     -1330.5124         34.2004   22078543.262    86640960.516 8     -1275.074          49.800
E14  20495855.581   107706378.204 6     -4401.914          37.700    20495869.755    80430102.848 7     -3287.145          43.000    20495866.759    82528270.612 7     -3372.895          43.400    20495868.283    81479192.603 7     -3330.020          42.700
G30  23168089.885   121749129.898 6     -1339.691          38.600    23168089.1294  121749129.90246     -1339.6914         36.7004   23168095.955    94869465.737 6     -1043.914          41.300    23168095.7194   94869471.73046     -1043.9144         36.9004   23168104.281    90916607.789 7     -1000.418          45.600
G03  22756790.006   119587772.689 6      3561.766          41.900    22756789.4884  119587772.69146      3561.7664         41.2004   22756795.846    93185311.602 7      2775.402          43.600    22756795.1074   93185318.59546      2775.4024         40.8004   22756803.682    89302639.755 7      2659.762          47.100
G21  21108226.594   110924545.967 7     -1917.879          47.000    21108225.8064  110924545.96846     -1917.8794         40.7004                                                                   21108225.5094   86434732.62746     -1494.4494         40.5004
G17  24114910.484   126724716.651 5      2385.613          34.500    24114910.4294  126724716.65745      2385.6134         30.4004   24114913.853    98746541.879 6      1858.922          36.400    24114914.4704   98746545.86945      1858.9224         30.2004
E12  26549568.211   139518953.475 5      2286.781          35.500    26549582.344   104186292.085 6      1707.664          39.500    26549579.776   106904182.421 6      1752.211          40.600    26549581.096   105545244.627 6      1729.938          40.100
G07  23194313.331   121886889.501 6     -2441.824          38.500    23194312.7774  121886889.49946     -2441.8244         36.0004   23194317.593    94976801.030 6     -1902.719          39.500    23194317.9674   94976799.02245     -1902.7194         35.9004
R03  22820616.931   122160612.122 6      2751.527          41.100    22820619.314   122160612.119 6      2751.527          40.800    22820619.226    95013850.213 7      2140.074          42.000    22820619.222    95013844.217 7      2140.074          42.100
E21  27827292.447   146233295.651 5     -2826.645          34.700    27827313.202   109200197.582 6     -2110.809          39.700    27827310.827   112048890.237 6     -2165.871          39.700    27827312.062   110624549.279 6     -2138.340          39.700
G14  21906052.471   115117126.739 7      2711.742          44.800    21906052.1994  115117126.75045      2711.7424         35.0004   21906053.533    89701677.926 7      2113.043          46.900    21906053.5534   89701679.92945      2113.0434         34.9004   21906065.431    85964160.449 8      2025.000          49.700
E31  24102905.582   126661688.122 7      1290.312          46.000    24102918.056    94585103.830 8       963.547          51.200    24102915.585    97052532.119 8       988.680          51.700    24102916.861    95818820.849 8       976.113          51.400
R16  19909415.267   106352560.450 8     -2242.297          51.900    19909418.114   106352560.448 8     -2242.297          51.500    19909415.890    82718673.504 8     -1744.012          50.600    19909416.066    82718677.506 8     -1744.012          50.300
R15  23287551.190   124441545.264 5     -4358.816          35.900    23287553.987   124441545.262 5     -4358.816          34.800    23287557.662    96787865.675 6     -3390.191          39.400    23287558.090    96787859.671 6     -3390.191          39.500
E33  23531134.138   123657012.334 7       326.902          46.200    23531144.845    92341353.279 8       244.117          52.600    23531142.351    94750245.666 8       250.484          53.000    23531143.629    93545804.848 8       247.301          52.800
R18  20579985.959   109857420.369 8     -1801.789          50.000    20579988.715   109857420.369 8     -1801.789          49.900    20579986.134    85444679.019 8     -1401.391          49.400    20579986.515    85444693.021 8     -1401.391          49.000
E26  24668405.798   129633393.723 7     -1772.621          45.300    24668416.394    96804221.997 8     -1323.711          48.500    24668413.849    99329535.797 8     -1358.242          49.400    24668415.142    98066884.276 8     -1340.977          49.000
J04  36866702.556   193735840.958 6       359.996          39.000    36866707.420   150963015.745 6       280.516          39.000    36866717.538   144672932.265 7       268.828          43.100
J07  37284707.399   195932460.556 6       138.027          37.000    37284710.212   152674653.919 7       107.551          45.000    37284719.979   146313248.907 8       103.070          50.300
J03  38483978.962   202234661.886 7      -441.695          47.800    38483980.259   157585449.875 8      -344.180          50.400    38483989.661   151019425.038 8      -329.840          53.300
> 2023 05 28 02 08 30.0000000  0 27
R02  23317860.687   124428600.117 6       -18.043          41.300    23317862.253   124428600.118 6       -18.043          40.600    23317863.118    96777826.506 6       -14.035          38.400    23317863.582    96777822.512 6       -14.035          38.300
R19  20168798.737   107889502.641 6       480.449          40.400    20168801.121   107889502.643 6       480.449          39.000    20168796.721    83914079.116 8       373.684          48.300    20168796.772    83914073.112 7       373.684          47.900
R09  20638898.759   110210620.409 8      2105.320          50.100    20638901.129   110210620.413 8      2105.320          49.100    20638897.385    85719378.168 8      1637.473          49.000    20638897.809    85719376.172 8      1637.473          48.900
J02  37432014.931   196706603.138 7       750.875          46.900    37432017.587   153277890.256 8       585.098          48.700    37432026.133   146891357.261 8       560.719          53.300
G27  24822761.171   130444371.357 5     -2539.879          33.600    24822760.3054  130444371.36042     -2539.8794         13.9004   24822770.193   101644943.394 6     -1979.129          36.200    24822770.2574  101644941.38742     -1979.1294         12.9004   24822778.738    97409758.901 6     -1896.664          39.600
G01  19850675.880   104316072.565 8        69.914          49.300    19850675.9074  104316072.56249        69.9144         54.3004   19850678.377    81285286.000 8        54.477          51.800    19850678.7894   81285298.99249        54.4774         54.1004   19850685.290    77898442.895 9        52.207          55.400
G02  22868896.261   120176909.023 7     -2426.207          43.900    22868895.7704  120176909.02045     -2426.2074         33.9004                                                                   22868895.0394   93644359.04245     -1890.5514         33.9004
G08  22088296.450   116074798.045 7     -1712.930          44.000    22088296.3874  116074798.03545     -1712.9304         34.1004   22088300.892    90447909.472 7     -1334.750          46.700    22088300.3534   90447911.45745     -1334.7504         34.1004   22088307.022    86679276.170 8     -1279.137          49.100
E14  20521046.967   107838763.886 6     -4423.617          37.700    20521061.652    80528962.068 6     -3303.352          41.900    20521058.928    82629708.776 7     -3389.523          42.900    20521060.264    81579341.297 7     -3346.438          42.000
G30  23175776.971   121789523.597 6     -1353.070          39.500    23175775.9694  121789523.59546     -1353.0704         37.5004   23175783.432    94900941.235 6     -1054.340          41.900    23175782.9354   94900947.23046     -1054.3404         37.5004   23175791.421    90946771.756 7     -1010.410          45.900
G03  22736476.714   119481031.178 6      3554.672          41.600    22736477.1264  119481031.17446      3554.6724         41.1004   22736483.736    93102136.522 7      2769.875          44.300    22736483.0574   93102143.52246      2769.8754         40.8004   22736491.142    89222930.337 7      2654.465          46.400
G21  21119196.289   110982191.956 7     -1925.020          47.800    21119195.4804  110982191.95646     -1925.0204         40.8004                                                                   21119195.3374   86479651.56646     -1500.0164         41.0004
G17  24101292.221   126653157.680 5      2385.285          34.800    24101292.9124  126653157.68744      2385.2854         29.1004   24101296.711    98690781.791 5      1858.664          35.800    24101296.0514   98690785.79444      1858.6644         29.2004
E12  26536530.120   139450442.030 5      2280.531          35.100    26536545.123   104135131.095 6      1702.992          39.900    26536542.390   106851686.755 6      1747.418          40.600    26536543.673   105493416.299 6      1725.207          40.400
G07  23208270.741   121960237.608 6     -2448.074          38.800    23208270.1294  121960237.61146     -2448.0744         36.6004   23208276.101    95033955.184 6     -1907.590          38.800    23208275.9654   95033953.18546     -1907.5904         36.4004
R03  22805236.249   122078276.715 6      2737.695          41.400    22805238.250   122078276.719 6      2737.695          40.700    22805238.098    94949811.773 6      2129.320          41.500    22805238.042    94949805.774 6      2129.320          41.500
E21  27843438.558   146318139.364 5     -2829.316          33.800    27843458.852   109263554.715 6     -2112.801          39.500    27843455.434   112113900.185 6     -2167.918          40.100    27843457.128   110688732.823 6     -2140.359          39.600
G14  21890603.656   115035943.190 7      2700.555          45.300    21890603.6484  115035943.20145      2700.5554         35.4004   21890604.794    89638418.052 7      2104.328          46.700    21890605.1694   89638420.03945      2104.3284         35.5004   21890616.996    85903536.409 8      2016.648          50.100
E31  24095571.138   126623147.022 7      1279.223          46.500    24095583.914    94556323.142 8       955.266          51.100    24095581.413    97023000.626 8       980.184          51.600    24095582.633    95789664.760 8       967.723          51.100
R16  19922073.283   106420176.582 8     -2265.254          52.300    19922076.089   106420176.581 8     -2265.254          52.100    19922073.929    82771263.761 8     -1761.863          50.700    19922074.179    82771267.764 8     -1761.863          50.800
R15  23312031.444   124572354.999 6     -4361.664          37.900    23312034.113   124572354.985 6     -4361.664          37.400    23312037.217    96889606.301 6     -3392.402          38.400    23312037.201    96889600.295 6     -3392.402          38.800
E33  23529294.027   123647341.620 7       318.094          46.700    23529304.514    92334131.662 8       237.539          52.500    23529302.071    94742835.657 8       243.734          53.400    23529303.350    93538489.035 8       240.637          53.000
R18  20590125.569   109911547.275 8     -1806.480          50.500    20590128.475   109911547.276 8     -1806.480          49.700    20590125.752    85486777.707 8     -1405.039          49.200    20590126.493    85486791.700 8     -1405.039          49.400
E26  24678535.695   129686626.699 7     -1776.105          45.200    24678546.303    96843973.867 8     -1326.312          48.500    24678543.912    99370324.674 8     -1360.910          49.500    24678545.091    98107154.647 8     -1343.609          49.400
J04  36864650.621   193725057.445 6       359.156          37.300    36864655.416   150954613.024 6       279.859          39.000    36864665.585   144664879.678 7       268.199          43.100
J07  37283919.098   195928316.870 6       138.180          38.000    37283921.940   152671425.061 7       107.672          45.500    37283931.409   146310154.590 8       103.188          50.000
J03  38486496.430   202247892.072 7      -440.129          46.500    38486498.037   157595759.106 8      -342.957          50.000    38486507.263   151029304.717 8      -328.668          53.900
> 2023 05 28 02 09  0.0000000  0 27
R02  23318028.833   124429495.785 6       -41.406          40.800    23318030.444   124429495.773 6       -41.406          39.600    23318030.154    96778523.192 6       -32.207          39.200    23318030.885    96778519.194 6       -32.207          39.500
R19  20166133.648   107875247.053 6       470.090          40.200    20166136.519   107875247.045 6       470.090          39.100    20166131.825    83902991.467 8       365.625          48.400    20166131.878    83902985.463 8       365.625          48.200
R09  20627137.487   110147814.366 8      2081.934          50.300    20627139.616   110147814.363 8      2081.934          49.500    20627135.928    85670529.033 8      1619.281          49.700    20627136.231    85670527.041 8      1619.281          48.800
J02  37427732.561   196684098.129 7       749.562          46.800    37427734.934   153260353.876 8       584.074          49.900    37427743.638   146874551.561 8       559.738          53.200
G27  24837264.994   130520594.527 5     -2541.598          32.800    24837265.7104  130520594.54042     -2541.5984         15.3004   24837275.115   101704337.818 6     -1980.469          37.500    24837276.3434  101704335.83242     -1980.4694         15.2004   24837283.196    97466678.542 6     -1897.949          39.100
G01  19850323.810   104314223.195 7        53.441          47.900    19850323.9284  104314223.19448        53.4414         53.6004   19850326.506    81283844.940 8        41.641          52.400    19850326.8074   81283857.93148        41.6414         53.5004   19850333.283    77897061.882 9        39.906          55.100
G02  22882754.716   120249734.919 7     -2428.852          44.400    22882753.8644  120249734.92145     -2428.8524         33.6004                                                                   22882753.1934   93701106.45745     -1892.6134         33.6004
G08  22098091.149   116126269.156 7     -1718.363          44.000    22098091.0114  116126269.15745     -1718.3634         34.3004   22098095.355    90488016.778 7     -1338.984          46.500    22098095.3384   90488018.77045     -1338.9844         34.0004   22098101.893    86717712.330 8     -1283.195          49.100
E14  20546363.978   107971799.412 6     -4444.965          38.100    20546378.062    80628306.537 7     -3319.293          42.500    20546374.812    82731644.874 7     -3405.883          42.300    20546376.463    81679981.579 7     -3362.590          42.200
G30  23183539.428   121830318.684 6     -1366.395          39.100    23183539.0174  121830318.69446     -1366.3954         37.5004   23183545.988    94932729.496 7     -1064.723          42.000    23183545.6614   94932735.50246     -1064.7234         37.4004   23183554.701    90977235.494 7     -1020.359          46.300
G03  22716206.385   119374506.647 6      3547.289          41.600    22716205.9934  119374506.65646      3547.2894         40.5004   22716212.059    93019130.527 7      2764.121          43.800    22716211.7554   93019137.52046      2764.1214         40.4004   22716219.995    89143382.957 7      2648.949          46.700
G21  21130206.869   111040051.549 7     -1932.152          47.300    21130205.8494  111040051.54846     -1932.1524         40.8004                                                                   21130205.6954   86524736.95146     -1505.5704         40.7004
G17  24087675.227   126581602.643 5      2385.277          34.800    24087674.9634  126581602.64744      2385.2774         28.8004   24087680.365    98635024.722 5      1858.656          35.200    24087679.7394   98635028.71144      1858.6564         28.7004
E12  26523527.802   139382112.173 5      2274.695          35.300    26523542.571   104084105.705 6      1698.637          41.100    26523539.193   106799330.245 6      1742.949          40.400    26523540.859   105441725.349 6      1720.793          40.500
G07  23222264.191   122033770.669 6     -2453.969          39.500    23222264.2394  122033770.66745     -2453.9694         35.9004   23222268.745    95091253.441 6     -1912.184          39.200    23222269.1054   95091251.42545     -1912.1844         35.8004
R03  22789931.389   121996356.510 6      2723.586          41.400    22789934.853   121996356.523 6      2723.586          41.000    22789934.105    94886096.262 7      2118.348          42.800    22789934.165    94886090.259 6      2118.348          41.800
E21  27859598.580   146403064.463 5     -2832.082          33.500    27859619.871   109326972.570 6     -2114.867          39.500    27859616.481   112178972.448 6     -2170.035          39.900    27859618.270   110752977.886 6     -2142.453          39.800
G14  21875219.033   114955097.061 7      2689.301          44.800    21875219.0754  114955097.06545      2689.3014         35.4004   21875220.403    89575421.111 7      2095.559          47.200    21875220.1954   89575423.10045      2095.5594         35.3004   21875232.210    85843164.352 8      2008.242          50.000
E31  24088300.635   126584938.745 7      1268.051          46.600    24088313.150    94527790.985 8       946.922          50.800    24088310.533    96993724.152 8       971.625          51.900    24088311.881    95760760.443 8       959.273          51.400
R16  19934859.678   106488479.181 8     -2288.105          52.300    19934862.494   106488479.184 8     -2288.105          52.000    19934860.147    82824387.934 8     -1779.637          50.900    19934860.591    82824391.934 8     -1779.637          50.400
R15  23336523.388   124703241.071 5     -4364.031          35.800    23336526.843   124703241.052 5     -4364.031          34.100    23336530.548    96991406.326 6     -3394.246          36.800    23336530.875    96991400.330 6     -3394.246          37.000
E33  23527503.427   123637932.070 7       309.270          46.300    23527513.988    92327105.065 8       230.949          52.100    23527511.513    94735625.754 8       236.973          53.300    23527512.731    93531370.787 8       233.961          52.800
R18  20600292.056   109965814.187 8     -1811.113          50.100    20600294.644   109965814.186 8     -1811.113          49.700    20600291.937    85528985.272 8     -1408.645          49.000    20600292.408    85528999.268 8     -1408.645          48.600
E26  24688685.325   129739964.828 7     -1779.652          45.000    24688696.393    96883804.256 8     -1328.961          48.900    24688693.605    99411194.118 8     -1363.629          48.900    24688694.940    98147504.564 8     -1346.293          48.900
J04  36862603.443   193714299.951 6       358.203          37.800    36862607.883   150946230.617 6       279.117          38.900    36862618.511   144656846.527 7       267.488          44.100
J07  37283130.024   195924171.153 6       138.289          39.100    37283133.166   152668194.637 7       107.758          45.400    37283142.526   146307058.761 8       103.270          49.900
J03  38489005.136   202261076.271 7      -438.621          47.400    38489006.945   157606032.508 8      -341.781          49.400    38489016.175   151039150.055 8      -327.543          53.800
> 2023 05 28 02 09 30.0000000  0 27
R02  23318328.113   124431097.527 6       -65.348          39.200    23318330.144   124431097.523 6       -65.348          38.200    23318329.472    96779769.020 6       -50.824          38.300    23318330.644    96779765.040 6       -50.824          37.700
R19  20163528.293   107861311.648 6       459.242          40.100    20163531.178   107861311.642 6       459.242          39.100    20163526.725    83892152.835 8       357.191          48.500    20163526.637    83892146.836 8       357.191          48.400
R09  20615508.125   110085714.638 8      2058.230          49.700    20615510.404   110085714.638 8      2058.230          49.400    20615506.687    85622229.275 8      1600.844          49.600    20615507.112    85622227.280 8      1600.844          49.600
J02  37423457.823   196661633.958 7       748.219          46.900    37423460.061   153242849.306 8       583.027          49.100    37423468.917   146857776.345 8       558.734          52.900
G27  24851780.259   130596866.693 5     -2543.215          34.200    24851780.3194  130596866.68142     -2543.2154         15.0004   24851787.477   101763770.461 6     -1981.727          36.000    24851788.0874  101763768.46642     -1981.7274         15.1004   24851797.735    97523634.768 6     -1899.156          39.900
G01  19850066.788   104312872.198 8        36.750          48.500    19850066.7584  104312872.20148        36.7504         53.8004   19850069.372    81282792.216 8        28.637          52.300    19850069.7194   81282805.21048        28.6374         53.9004   19850076.191    77896053.028 9        27.441          55.100
G02  22896627.539   120322637.065 7     -2431.293          44.300    22896627.2444  120322637.07245     -2431.2934         33.9004                                                                   22896626.3034   93757913.29345     -1894.5124         33.8004
G08  22107916.973   116177903.109 7     -1723.750          44.200    22107916.5974  116177903.11145     -1723.7504         34.4004   22107920.757    90528250.974 7     -1343.184          46.200    22107920.8064   90528252.96145     -1343.1844         34.1004   22107927.498    86756270.087 8     -1287.215          49.200
E14  20571801.852   108105481.895 6     -4466.789          37.900    20571817.753    80728134.110 7     -3335.590          42.400    20571813.780    82834076.668 6     -3422.605          41.900    20571815.714    81781111.260 7     -3379.098          42.400
G30  23191379.054   121871514.207 6     -1379.805          38.900    23191378.5194  121871514.21446     -1379.8054         37.9004   23191385.809    94964829.772 7     -1075.172          42.200    23191385.5034   94964835.76746     -1075.1724         38.1004   23191393.504    91007998.231 7     -1030.375          45.700
G03  22695977.006   119268203.646 6      3539.781          41.000    22695976.9784  119268203.64446      3539.7814         41.1004   22695983.562    92936297.141 7      2758.270          43.600    22695982.8244   92936304.13446      2758.2704         40.9004   22695991.143    89064000.988 7      2643.344          46.900
G21  21141257.713   111098124.147 7     -1939.234          46.200    21141256.7174  111098124.14846     -1939.2344         41.2004                                                                   21141256.5644   86569988.31946     -1511.0904         40.9004
G17  24074060.956   126510052.620 6      2385.062          37.100    24074060.9294  126510052.63145      2385.0624         30.5004   24074063.691    98579271.607 5      1858.492          35.800    24074064.0924   98579275.58745      1858.4924         30.5004
E12  26510559.830   139313965.573 5      2268.449          35.600    26510574.012   104033217.147 6      1693.969          40.000    26510571.513   106747114.137 6      1738.160          41.000    26510572.873   105390173.017 6      1716.066          40.400
G07  23236291.764   122107486.774 6     -2460.078          39.400    23236291.1974  122107486.77445     -2460.0784         35.5004   23236295.900    95148694.307 6     -1916.941          37.900    23236297.0914   95148692.29145     -1916.9414         35.4004
R03  22774707.700   121914857.281 6      2709.543          41.800    22774709.740   121914857.291 6      2709.543          41.100    22774709.760    94822708.199 6      2107.422          41.500    22774709.106    94822702.199 6      2107.422          41.500
E21  27875775.584   146488070.919 5     -2834.926          33.300    27875796.059   109390451.204 6     -2116.988          38.800    27875792.730   112244107.074 6     -2172.215          38.800    27875794.532   110817284.514 6     -2144.602          39.100
G14  21859899.695   114874592.323 7      2677.844          44.700    21859899.4334  114874592.33445      2677.8444         35.4004   21859900.548    89512690.168 7      2086.633          46.800    21859900.8074   89512692.16745      2086.6334         35.4004   21859912.677    85783047.213 8      1999.688          49.600
E31  24081093.852   126547065.925 7      1256.906          46.900    24081106.215    94499509.332 8       938.598          51.100    24081103.713    96964704.715 8       963.082          51.500    24081104.898    95732109.899 8       950.840          51.000
R16  19947774.013   106557465.969 8     -2310.840          51.900    19947776.983   106557465.963 8     -2310.840          51.900    19947774.711    82878044.244 8     -1797.320          50.700    19947775.039    82878048.247 8     -1797.320          50.000
R15  23361031.366   124834201.222 5     -4367.133          33.700    23361034.974   124834201.239 5     -4367.133          33.400    23361037.401    97093263.911 5     -3396.660          35.400    23361038.148    97093257.921 5     -3396.660          35.600
E33  23525762.650   123628784.131 7       300.703          46.500    23525773.116    92320273.824 8       224.551          52.300    23525770.677    94728616.309 8       230.410          52.900    23525771.871    93524450.441 8       227.480          52.900
R18  20610484.059   110020220.663 8     -1815.750          49.700    20610486.725   110020220.661 8     -1815.750          49.800    20610483.979    85571301.396 8     -1412.250          48.300    20610484.583    85571315.389 8     -1412.250          48.500
E26  24698855.422   129793408.159 7     -1783.094          44.400    24698866.248    96923713.203 8     -1331.531          48.400    24698863.518    99452144.174 8     -1366.266          48.900    24698864.873    98187934.062 8     -1348.898          48.900
J04  36860561.545   193703570.035 6       357.340          38.000    36860565.342   150937869.669 6       278.449          38.300    36860576.926   144648833.962 7       266.848          43.700
J07  37282340.787   195920024.769 6       138.195          38.500    37282343.828   152664963.676 7       107.684          45.100    37282353.443   146303962.425 8       103.199          50.300
J03  38491505.479   202274215.569 7      -437.156          46.600    38491507.217   157616270.914 8      -340.641          49.300    38491516.513   151048961.865 8      -326.449          52.800
> 2023 05 28 02 10  0.0000000  0 27
R02  23318760.223   124433404.444 6       -88.633          39.700    23318762.248   124433404.447 6       -88.633          39.100    23318761.453    96781563.379 6       -68.938          37.000    23318762.741    96781559.367 6       -68.938          36.700
R19  20160983.419   107847693.922 6       448.656          40.100    20160985.447   107847693.920 6       448.656          39.300    20160981.081    83881561.292 8       348.953          48.100    20160981.026    83881555.288 8       348.953          48.600
R09  20604011.189   110024322.921 8      2034.566          50.500    20604013.702   110024322.919 8      2034.566          49.300    20604010.058    85574480.170 8      1582.441          49.900    20604010.337    85574478.176 8      1582.441          49.500
J02  37419190.367   196639209.692 7       746.707          46.000    37419192.866   153225375.832 8       581.848          48.700    37419201.750   146841030.929 8       557.605          53.400
G27  24866303.612   130673186.285 5     -2544.879          33.000    24866302.7814  130673186.28442     -2544.8794         14.2004   24866312.501   101823240.073 6     -1983.023          36.300    24866312.8194  101823238.07642     -1983.0234         13.4004   24866320.860    97580626.447 6     -1900.395          38.300
G01  19849904.068   104312017.117 8        20.254          48.500    19849904.0964  104312017.10948        20.2544         53.8004   19849906.805    81282125.917 8        15.781          52.000    19849907.0204   81282138.91148        15.7814         53.5004   19849913.465    77895414.493 9        15.125          55.400
G02  22910514.301   120395612.531 7     -2433.652          43.800    22910513.4994  120395612.53545     -2433.6524         33.5004                                                                   22910512.7444   93814777.25445     -1896.3524         33.3004
G08  22117773.336   116229698.414 7     -1729.156          45.100    22117772.9264  116229698.41345     -1729.1564         34.3004   22117777.553    90568610.892 7     -1347.395          46.700    22117777.0134   90568612.87945     -1347.3954         34.2004   22117783.763    86794948.340 8     -1291.254          49.600
E14  20597363.531   108239805.499 6     -4488.020          37.500    20597378.488    80828440.447 7     -3351.445          42.600    20597375.120    82936999.726 7     -3438.871          42.400    20597376.809    81882725.960 7     -3395.160          42.100
G30  23199293.977   121913106.448 6     -1392.941          38.600    23199293.1314  121913106.44746     -1392.9414         38.0004   23199300.113    94997239.148 7     -1085.406          42.200    23199300.0494   94997245.14246     -1085.4064         37.6004   23199308.600    91039057.196 7     -1040.184          46.100
G03  22675790.451   119162124.110 6      3532.293          40.700    22675790.8794  119162124.10746      3532.2934         41.3004   22675796.913    92853637.898 7      2752.438          43.300    22675796.6414   92853644.89446      2752.4384         41.0004   22675804.886    88984785.906 7      2637.750          47.200
G21  21152348.264   111156406.110 7     -1946.250          47.200    21152347.3894  111156406.10946     -1946.2504         41.0004                                                                   21152347.2324   86615402.82146     -1516.5594         40.7004
G17  24060446.291   126438506.635 5      2384.832          34.600    24060445.5144  126438506.63444      2384.8324         29.6004   24060449.836    98523521.622 6      1858.309          36.100    24060449.2974   98523525.60445      1858.3094         30.0004
E12  26497627.268   139246001.158 5      2262.352          35.700    26497640.666   103982464.654 6      1689.418          39.900    26497637.971   106695037.667 6      1733.488          41.800    26497639.420   105338758.538 6      1711.453          40.500
G07  23250354.218   122181381.955 6     -2466.312          38.900    23250353.6724  122181381.95245     -2466.3124         34.8004   23250358.845    95206274.708 6     -1921.801          37.800    23250358.7024   95206272.70645     -1921.8014         34.8004
R03  22759561.714   121833781.586 7      2695.430          42.300    22759564.173   121833781.589 6      2695.430          41.100    22759563.245    94759649.522 6      2096.445          40.900    22759563.297    94759643.520 6      2096.445          41.100
E21  27891966.694   146573156.251 5     -2837.598          33.800    27891987.275   109453988.733 6     -2118.984          38.600    27891984.384   112309302.113 6     -2174.262          39.600    27891985.765   110881650.802 6     -2146.625          39.000
G14  21844645.378   114794430.286 7      2666.359          45.200    21844645.1534  114794430.29945      2666.3594         35.4004   21844646.615    89450226.282 7      2077.684          46.900    21844646.3914   89450228.28245      2077.6844         35.4004   21844658.516    85723185.993 8      1991.113          50.500
E31  24073950.684   126509528.696 7      1245.520          46.700    24073963.174    94471478.283 8       930.098          51.700    24073960.563    96935942.425 8       954.359          51.600    24073961.893    95703713.231 8       942.227          51.400
R16  19960816.027   106627132.878 8     -2333.492          52.100    19960818.955   106627132.874 8     -2333.492          51.500    19960816.485    82932229.546 8     -1814.941          50.400    19960816.945    82932233.550 8     -1814.941          49.800
R15  23385554.476   124965229.734 5     -4368.164          31.400    23385556.335   124965229.724 5     -4368.164          30.600    23385556.807    97195174.689 5     -3397.461          33.200    23385558.609    97195168.706 5     -3397.461          33.500
E33  23524071.224   123619895.745 7       291.965          46.300    23524081.632    92313636.416 8       218.023          52.400    23524079.214    94721805.745 8       223.711          52.800    23524080.458    93517726.458 8       220.867          52.500
R18  20620701.665   110074763.872 8     -1820.352          50.000    20620704.519   110074763.869 8     -1820.352          49.200    20620701.487    85613723.857 8     -1415.828          49.000    20620702.441    85613737.855 8     -1415.828          49.000
E26  24709044.972   129846954.238 7     -1786.527          44.500    24709055.634    96963698.872 8     -1334.094          48.400    24709052.919    99493172.955 8     -1368.898          49.000    24709054.266    98228441.290 8     -1351.496          48.500
J04  36858524.308   193692866.780 6       356.320          37.800    36858529.627   150929529.513 6       277.652          38.400    36858540.310   144640841.325 7       266.082          44.600
J07  37281551.607   195915876.521 6       138.203          38.600    37281554.473   152661731.284 7       107.691          44.900    37281564.105   146300864.712 8       103.203          50.300
J03  38493997.116   202287308.511 7      -435.609          47.300    38493998.791   157626473.200 8      -339.438          50.000    38494008.096   151058739.056 8      -325.293          53.400
> 2023 05 28 02 10 30.0000000  0 27
R02  23319325.440   124436419.524 6      -112.160          40.500    23319327.846   124436419.523 6      -112.160          39.800    23319327.173    96783908.438 6       -87.234          38.800    23319328.406    96783904.435 6       -87.234          38.200
R19  20158496.727   107834395.401 6       438.121          40.100    20158499.445   107834395.396 6       438.121          39.000    20158495.011    83871218.005 8       340.762          48.000    20158495.002    83871212.009 8       340.762          48.100
R09  20592647.715   109963644.657 8      2010.754          50.100    20592650.440   109963644.659 8      2010.754          48.900    20592647.019    85527285.982 8      1563.918          49.800    20592647.225    85527283.986 8      1563.918          49.500
J02  37414931.381   196616828.280 7       745.426          46.800    37414933.950   153207935.758 8       580.852          49.900    37414942.744   146824317.522 8       556.648          53.500
G27  24880836.538   130749556.402 5     -2546.453          33.300    24880834.1954  130749556.42842     -2546.4534         13.1004   24880845.523   101882749.046 5     -1984.250          35.600    24880845.0194  101882747.04142     -1984.2504         13.3004   24880854.395    97637655.813 6     -1901.574          40.000
G01  19849836.142   104311659.426 8         3.781          49.500    19849836.0994  104311659.42749         3.7814         54.1004   19849838.692    81281847.200 8         2.945          52.500    19849839.0364   81281860.19848         2.9454         53.6004   19849845.399    77895147.386 9         2.824          55.600
G02  22924415.624   120468662.436 7     -2436.098          44.200    22924414.2964  120468662.43745     -2436.0984         33.8004                                                                   22924413.6314   93871699.23045     -1898.2584         33.9004
G08  22127661.003   116281657.928 7     -1734.672          43.900    22127660.1924  116281657.92545     -1734.6724         33.8004   22127664.901    90609098.770 7     -1351.691          45.800    22127664.2074   90609100.76545     -1351.6914         33.7004   22127671.657    86833749.206 8     -1295.371          49.400
E14  20623045.678   108374768.624 6     -4509.242          37.500    20623061.356    80929224.311 6     -3367.293          41.800    20623058.055    83040412.780 7     -3455.133          42.100    20623059.678    81984824.420 7     -3411.215          42.200
G30  23207284.937   121955095.678 6     -1406.188          39.700    23207283.6974  121955095.68046     -1406.1884         37.4004   23207291.009    95029957.922 6     -1095.730          41.300    23207290.3704   95029963.92946     -1095.7304         37.5004   23207298.916    91070412.665 7     -1050.074          45.700
G03  22655647.757   119056273.985 6      3524.543          40.700    22655648.1124  119056273.98546      3524.5434         41.2004   22655654.763    92771157.392 7      2746.398          43.800    22655653.9624   92771164.39446      2746.3984         41.3004   22655662.147    88905742.128 7      2631.965          46.700
G21  21163478.964   111214898.167 7     -1953.098          47.900    21163478.0614  111214898.16846     -1953.0984         40.9004                                                                   21163478.1054   86660981.04046     -1521.8954         40.6004
G17  24046832.209   126366967.113 5      2384.656          35.100    24046831.5844  126366967.10545      2384.6564         31.6004   24046835.984    98467776.679 6      1858.176          37.400    24046835.9644   98467780.66445      1858.1764         31.0004
E12  26484728.766   139178221.939 5      2256.188          35.700    26484742.900   103931850.450 6      1684.812          40.600    26484739.910   106643103.068 6      1728.766          40.800    26484741.471   105287484.133 6      1706.789          40.700
G07  23264449.451   122255455.479 6     -2471.832          38.800    23264449.4704  122255455.47145     -2471.8324         34.8004   23264455.220    95263994.122 6     -1926.105          38.600    23264455.1324   95263992.11545     -1926.1054         34.7004
R03  22744496.136   121753136.810 7      2681.004          42.300    22744498.657   121753136.815 6      2681.004          41.500    22744498.289    94696926.047 6      2085.227          41.300    22744497.786    94696920.038 6      2085.227          41.200
E21  27908171.976   146658321.803 5     -2839.668          32.300    27908194.374   109517586.213 6     -2120.531          38.700    27908190.781   112374558.675 6     -2175.848          38.300    27908192.637   110946077.820 6     -2148.191          38.400
G14  21829456.944   114714616.196 7      2654.773          44.500    21829457.0174  114714616.19545      2654.7734         35.6004   21829458.149    89388033.527 7      2068.656          46.700    21829458.1754   89388035.52545      2068.6564         35.6004   21829470.270    85663584.598 8      1982.461          49.800
E31  24066872.531   126472330.980 7      1234.305          46.800    24066884.716    94443700.774 8       921.723          51.000    24066882.041    96907440.285 8       945.766          51.500    24066883.367    95675573.404 8       933.742          51.200
R16  19973985.248   106697479.278 8     -2356.062          52.300    19973987.950   106697479.275 8     -2356.062          51.400    19973985.637    82986943.336 8     -1832.492          50.500    19973985.949    82986947.342 8     -1832.492          50.800
R15  23410086.937   125096326.572 5     -4370.805          35.200    23410088.749   125096326.573 5     -4370.805          33.900    23410090.907    97297138.617 5     -3399.512          34.300    23410092.436    97297132.633 5     -3399.512          34.600
E33  23522429.251   123611268.802 7       283.348          46.200    23522440.010    92307194.239 8       211.590          52.000    23522437.582    94715195.512 8       217.109          52.800    23522438.815    93511200.250 8       214.348          52.500
R18  20630945.252   110129444.816 8     -1824.836          49.800    20630948.162   110129444.809 8     -1824.836          49.100    20630945.396    85656253.441 8     -1419.316          48.700    20630946.068    85656267.441 8     -1419.316          49.000
E26  24719254.574   129900604.413 7     -1789.844          45.100    24719264.910    97003762.288 8     -1336.574          48.200    24719262.383    99534281.506 8     -1371.441          49.000    24719263.663    98269027.270 8     -1354.008          48.800
J04  36856493.292   193682193.061 6       355.152          38.200    36856498.042   150921212.356 6       276.742          39.000    36856508.960   144632870.738 7       265.211          43.600
J07  37280762.396   195911729.088 6       138.336          38.100    37280765.419   152658499.512 7       107.797          45.200    37280774.957   146297767.599 8       103.305          49.900
J03  38496480.146   202300357.596 7      -434.098          47.100    38496481.875   157636641.313 8      -338.258          50.000    38496491.255   151068483.500 8      -324.164          53.100
> 2023 05 28 02 11  0.0000000  0 27
R02  23320023.169   124440142.179 6      -135.934          41.300    23320025.447   124440142.177 6      -135.934          40.500    23320024.942    96786803.864 6      -105.727          38.700    23320025.308    96786799.863 6      -105.727          38.500
R19  20156069.495   107821413.499 6       427.469          40.200    20156072.494   107821413.490 6       427.469          39.300    20156068.219    83861120.987 8       332.477          48.800    20156068.022    83861114.984 8       332.477          48.000
R09  20581418.915   109903681.297 8      1986.750          50.200    20581421.236   109903681.291 8      1986.750          49.500    20581417.547    85480647.829 8      1545.250          49.500    20581417.953    85480645.832 8      1545.250          49.000
J02  37410680.368   196594488.938 7       743.828          45.900    37410682.713   153190528.469 8       579.605          48.900    37410691.696   146807635.532 8       555.457          52.500
G27  24895377.611   130825975.655 5     -2548.320          31.800    24895377.4314  130825975.64742     -2548.3204         12.2004   24895387.040   101942296.299 5     -1985.703          34.200    24895386.8254  101942294.33342     -1985.7034         12.5004   24895396.082    97694721.882 6     -1902.969          39.300
G01  19849862.114   104311796.718 8       -12.930          48.600    19849862.1944  104311796.71448       -12.9304         53.5004   19849864.830    81281954.179 8       -10.074          51.900    19849865.1444   81281967.17248       -10.0744         53.7004   19849871.606    77895249.905 9        -9.656          55.400
G02  22938329.844   120541784.425 7     -2438.605          44.300    22938329.1274  120541784.42045     -2438.6054         33.2004                                                                   22938328.6964   93928677.37645     -1900.2114         33.2004
G08  22137579.754   116333780.586 7     -1740.211          44.600    22137579.0934  116333780.57945     -1740.2114         33.6004   22137583.329    90649713.768 7     -1356.012          45.600    22137582.5224   90649715.75945     -1356.0124         33.6004   22137590.333    86872671.889 8     -1299.508          49.300
E14  20648849.953   108510365.661 6     -4530.469          36.700    20648865.254    81030481.556 7     -3383.141          42.300    20648861.638    83144311.542 7     -3471.398          42.100    20648863.287    82087402.428 7     -3427.270          42.100
G30  23215349.088   121997478.331 6     -1419.590          39.300    23215348.5334  121997478.34346     -1419.5904         37.9004   23215355.951    95062983.256 7     -1106.172          42.200    23215355.8324   95062989.25846     -1106.1724         38.1004   23215364.336    91102061.908 7     -1060.082          45.700
G03  22635548.816   118950655.275 6      3516.586          40.700    22635549.4184  118950655.28046      3516.5864         41.4004   22635555.209    92688857.233 7      2740.195          44.000    22635555.0954   92688864.22846      2740.1954         41.4004   22635563.626    88826871.160 7      2626.023          47.200
G21  21174648.782   111273596.949 8     -1960.203          48.000    21174648.0294  111273596.95146     -1960.2034         40.6004                                                                   21174647.9194   86706720.34246     -1527.4304         40.5004
G17  24033219.690   126295432.986 5      2384.238          35.100    24033219.3104  126295432.99145      2384.2384         30.9004   24033222.926    98412035.918 6      1857.848          37.600    24033222.8904   98412039.91545      1857.8484         30.7004
E12  26471865.937   139110626.900 6      2250.293          36.000    26471879.063   103881373.777 6      1680.414          40.100    26471876.677   106591309.600 6      1724.250          40.900    26471877.870   105236349.065 6      1702.332          40.800
G07  23278578.432   122329703.436 6     -2477.891          37.100    23278578.2534  122329703.43545     -2477.8914         34.2004   23278583.857    95321849.424 6     -1930.824          37.900    23278583.8674   95321847.42845     -1930.8244         34.0004
R03  22729511.755   121672925.745 7      2666.281          42.700    22729514.790   121672925.759 6      2666.281          41.800    22729513.920    94634539.835 7      2073.773          42.000    22729513.811    94634533.839 6      2073.773          41.400
E21  27924392.406   146743565.380 5     -2843.211          31.400    27924416.009   109581241.915 6     -2123.176          38.100    27924412.070   112439874.986 6     -2178.562          38.700    27924413.916   111010563.826 6     -2150.871          38.400
G14  21814335.682   114635151.516 7      2642.836          44.800    21814335.6144  114635151.52045      2642.8364         35.7004   21814336.412    89326113.026 7      2059.352          46.800    21814336.3494   89326115.01945      2059.3524         35.6004   21814348.719    85604244.129 8      1973.547          50.000
E31  24059858.189   126435473.006 7      1222.922          46.700    24059870.858    94416176.960 8       913.223          51.100    24059868.222    96879198.458 8       937.043          51.800    24059869.561    95647690.585 8       925.133          51.500
R16  19987280.362   106768501.085 8     -2378.652          52.200    19987283.384   106768501.078 8     -2378.652          51.800    19987281.093    83042182.435 8     -1850.062          50.900    19987281.480    83042186.445 8     -1850.062          50.000
R15  23434631.707   125227486.388 5     -4373.059          34.300    23434633.214   125227486.390 5     -4373.059          32.000    23434636.083    97399151.599 5     -3401.266          31.400    23434637.544    97399145.597 5     -3401.266          31.700
E33  23520837.377   123602901.306 7       274.441          45.800    23520847.796    92300945.808 8       204.941          52.300    23520845.223    94708784.078 8       210.289          52.800    23520846.530    93504870.318 8       207.613          53.200
R18  20641214.007   110184260.640 8     -1829.539          50.300    20641216.863   110184260.634 8     -1829.539          49.200    20641213.947    85698887.965 8     -1422.977          49.000    20641214.975    85698901.963 8     -1422.977          48.400
E26  24729482.831   129954356.466 7     -1793.512          45.100    24729493.567    97043901.773 8     -1339.309          48.900    24729491.102    99575468.112 8     -1374.246          49.500    24729492.394    98309690.316 8     -1356.777          48.900
J04  36854467.951   193671547.990 6       354.086          38.200    36854472.904   150912917.552 6       275.910          39.000    36854483.187   144624921.547 7       264.414          44.800
J07  37279973.214   195907581.430 6       138.113          39.000    37279975.906   152655267.561 7       107.621          45.300    37279985.595   146294670.316 8       103.137          49.900
J03  38498954.841   202313361.462 7      -432.797          47.300    38498956.080   157646774.196 8      -337.242          49.900    38498965.767   151078194.172 8      -323.191          53.700
> 2023 05 28 02 11 30.0000000  0 27
R02  23320853.402   124444569.462 7      -159.355          42.200    23320855.179   124444569.460 6      -159.355          41.200    23320854.675    96790247.311 6      -123.941          37.000    23320855.273    96790243.326 6      -123.941          37.400
R19  20153701.439   107808743.047 6       417.141          40.200    20153703.591   107808743.041 6       417.141          39.300    20153699.514    83851266.209 8       324.441          48.700    20153699.717    83851260.204 8       324.441          48.600
R09  20570323.506   109844432.645 8      1963.043          50.400    20570325.962   109844432.646 8      1963.043          49.300    20570321.999    85434565.548 8      1526.812          49.100    20570322.579    85434563.556 8      1526.812          49.400
J02  37406437.001   196572188.775 7       742.699          46.300    37406439.186   153173151.700 8       578.727          49.000    37406448.135   146790982.794 8       554.613          52.900
G27  24909930.055   130902440.888 5     -2549.723          32.200    24909929.9994  130902440.91741     -2549.7234         11.9004   24909938.339   102001879.404 5     -1986.797          35.400    24909938.6384  102001877.42642     -1986.7974         12.9004   24909947.808    97751822.341 6     -1904.012          38.900
G01  19849981.651   104312424.513 8       -29.117          49.000    19849981.7474  104312424.51448       -29.1174         53.6004   19849984.404    81282443.367 8       -22.688          52.400    19849984.5904   81282456.36449       -22.6884         54.0004   19849991.089    77895718.714 9       -21.742          54.900
G02  22952257.385   120614973.921 7     -2440.781          44.200    22952256.5024  120614973.92345     -2440.7814         33.4004                                                                   22952256.8554   93985708.10545     -1901.9064         33.4004
G08  22147528.446   116386062.958 7     -1745.320          44.400    22147527.9774  116386062.95045     -1745.3204         33.2004   22147532.644    90690453.224 7     -1359.988          46.700    22147532.6924   90690455.20945     -1359.9884         33.3004   22147539.326    86911713.856 8     -1303.324          49.100
E14  20674772.504   108646588.942 6     -4551.258          36.900    20674787.367    81132206.449 6     -3398.664          41.700    20674784.294    83248690.173 6     -3487.328          41.500    20674785.669    82190454.188 6     -3442.996          41.600
G30  23223488.115   122040248.788 6     -1432.230          39.900    23223487.9294  122040248.79346     -1432.2304         37.8004   23223495.409    95096310.756 6     -1116.023          41.300    23223495.1614   95096316.74846     -1116.0234         37.9004   23223503.137    91134000.743 7     -1069.523          45.600
G03  22615494.786   118845268.038 7      3508.902          42.100    22615494.7784  118845268.04346      3508.9024         41.5004   22615500.713    92606737.426 7      2734.211          44.000    22615500.5364   92606744.41946      2734.2114         41.5004   22615508.803    88748173.035 7      2620.285          47.100
G21  21185857.134   111332497.063 7     -1966.695          46.700    21185856.4054  111332497.06046     -1966.6954         40.7004                                                                   21185856.1504   86752616.51746     -1532.4884         40.4004
G17  24019607.087   126223900.970 5      2384.426          34.500    24019605.8684  126223900.97644      2384.4264         29.6004   24019610.310    98356296.822 6      1857.996          36.800    24019610.4364   98356300.81944      1857.9964         29.6004
E12  26459037.422   139043213.235 5      2244.219          35.300    26459050.870   103831032.529 6      1675.875          40.200    26459048.697   106539655.104 6      1719.594          41.500    26459049.892   105185351.195 6      1697.734          40.900
G07  23292739.252   122404119.068 6     -2483.195          37.400    23292738.7274  122404119.06545     -2483.1954         33.1004   23292745.810    95379835.388 6     -1934.957          37.800    23292744.5704   95379833.37945     -1934.9574         33.3004
R03  22714609.108   121593149.427 6      2651.930          41.300    22714611.142   121593149.428 6      2651.930          40.900    22714610.930    94572491.805 6      2062.609          41.600    22714610.921    94572485.802 7      2062.609          42.100
E21  27940629.644   146828882.216 5     -2844.316          32.600    27940651.239   109644952.340 6     -2124.004          37.900    27940647.394   112505247.437 6     -2179.410          37.200    27940649.154   111075105.264 6     -2151.707          37.700
G14  21799279.925   114556035.625 7      2631.359          45.200    21799280.0544  114556035.63046      2631.3594         36.1004   21799281.130    89264464.310 7      2050.410          47.300    21799281.3634   89264466.30645      2050.4104         35.8004   21799293.364    85545164.115 8      1964.977          49.600
E31  24052908.818   126398952.891 7      1211.684          47.300    24052921.263    94388905.447 8       904.828          51.500    24052918.744    96851215.514 8       928.434          51.500    24052920.067    95620063.353 8       916.633          51.900
R16  20000701.352   106840191.899 8     -2400.820          52.300    20000704.185   106840191.897 8     -2400.820          51.700    20000702.058    83097941.884 8     -1867.305          50.500    20000702.298    83097945.886 8     -1867.305          50.600
R15  23459186.559   125358702.715 5     -4374.953          33.100    23459189.242   125358702.721 5     -4374.953          31.000    23459192.324    97501208.510 5     -3402.738          31.100    23459193.223    97501202.515 5     -3402.738          31.100
E33  23519293.437   123594789.143 7       266.141          46.100    23519304.127    92294888.050 8       198.742          53.000    23519301.537    94702568.289 8       203.926          53.800    23519302.814    93498733.544 8       201.336          53.200
R18  20651507.139   110239206.369 8     -1833.664          50.000    20651510.029   110239206.369 8     -1833.664          48.900    20651507.687    85741623.503 7     -1426.184          47.600    20651508.127    85741637.505 8     -1426.184          49.000
E26  24739730.220   130008205.848 7     -1796.594          45.200    24739740.824    97084113.947 8     -1341.613          48.800    24739738.529    99616729.302 8     -1376.613          49.100    24739739.691    98350426.997 8     -1359.113          48.900
J04  36852447.056   193660928.681 6       353.586          38.300    36852451.399   150904642.795 6       275.523          38.800    36852462.400   144616991.580 7       264.043          44.200
J07  37279183.802   195903430.330 6       138.430          37.400    37279186.067   152652032.942 7       107.867          45.000    37279195.688   146291570.466 8       103.371          50.100
J03  38501420.191   202326316.672 8      -431.055          48.000    38501421.777   157656869.157 8      -335.887          50.000    38501431.094   151087868.510 8      -321.891          53.700
> 2023 05 28 02 12  0.0000000  0 27
R02  23321813.428   124449703.286 6      -182.797          39.000    23321816.542   124449703.284 6      -182.797          39.200    23321816.665    96794240.322 6      -142.176          39.500    23321817.755    96794236.336 6      -142.176          38.900
R19  20151391.405   107796384.878 6       406.855          40.300    20151393.416   107796384.874 6       406.855          39.300    20151389.434    83841654.318 8       316.445          49.100    20151389.433    83841648.320 8       316.445          48.900
R09  20559362.611   109785903.231 8      1939.090          49.600    20559365.127   109785903.230 8      1939.090          49.100    20559361.513    85389042.676 8      1508.184          49.500    20559361.992    85389040.684 8      1508.184          49.300
J02  37402200.895   196549929.789 7       741.402          46.400    37402203.768   153155807.029 8       577.719          49.200    37402212.430   146774360.812 8       553.645          53.000
G27  24924490.145   130978953.881 5     -2551.312          34.300    24924488.6714  130978953.88242     -2551.3124         13.2004   24924498.365   102061499.681 6     -1988.035          37.100    24924497.5524  102061497.69942     -1988.0354         13.6004   24924507.634    97808958.407 6     -1905.199          39.100
G01  19850194.333   104313543.259 8       -45.316          48.200    19850194.5234  104313543.25848       -45.3164         53.5004   19850197.118    81283315.116 8       -35.312          52.000    19850197.4204   81283328.10848       -35.3124         53.6004   19850203.976    77896554.137 9       -33.840          55.600
G02  22966197.706   120688230.776 7     -2442.902          43.500    22966197.2084  120688230.78445     -2442.9024         33.1004                                                                   22966196.6244   94042791.33945     -1903.5624         33.1004
G08  22157508.547   116438507.136 7     -1750.664          43.400    22157508.2514  116438507.13345     -1750.6644         33.7004   22157512.526    90731318.760 7     -1364.152          46.400    22157511.9514   90731320.75645     -1364.1524         33.4004   22157519.234    86950876.655 8     -1307.312          49.000
E14  20700812.915   108783435.856 6     -4571.785          36.700    20700828.271    81234397.033 6     -3413.992          40.600    20700826.301    83353546.628 7     -3503.055          42.400    20700827.300    82293977.703 6     -3458.523          41.600
G30  23231701.290   122083406.252 6     -1444.855          40.300    23231700.9944  122083406.25746     -1444.8554         38.6004   23231707.299    95129939.826 6     -1125.863          41.400    23231707.6804   95129945.81546     -1125.8634         38.4004   23231716.165    91166228.561 7     -1078.953          46.200
G03  22595484.953   118740117.116 6      3501.062          41.100    22595485.2184  118740117.11446      3501.0624         41.9004   22595491.594    92524801.744 7      2728.102          43.800    22595490.9304   92524808.74446      2728.1024         41.7004   22595499.124    88669651.375 7      2614.430          47.200
G21  21197103.786   111391598.081 7     -1973.246          47.400    21197102.9494  111391598.08046     -1973.2464         41.1004                                                                   21197102.6644   86798669.25246     -1537.5944         41.0004
G17  24005996.361   126152372.671 5      2384.305          35.700    24005995.6094  126152372.67145      2384.3054         31.4004   24005999.560    98300560.638 6      1857.898          37.600    24005999.5724   98300564.61845      1857.8984         31.3004
E12  26446243.922   138975982.789 6      2238.125          36.000    26446257.482   103780828.143 6      1671.328          41.000    26446254.941   106488141.013 7      1714.926          42.100    26446256.140   105134491.951 6      1693.125          41.800
G07  23306931.626   122478701.403 6     -2488.750          36.600    23306931.1344  122478701.39745     -2488.7504         33.5004   23306938.344    95437951.242 6     -1939.285          38.600    23306937.9834   95437949.23245     -1939.2854         33.6004
R03  22699787.964   121513813.574 7      2637.305          42.000    22699790.317   121513813.579 6      2637.305          41.400    22699790.202    94510786.372 7      2051.238          43.100    22699790.155    94510780.370 7      2051.238          42.400
E21  27956879.746   146914273.036 5     -2847.277          33.600    27956900.894   109708717.999 6     -2126.215          38.000    27956896.800   112570676.584 6     -2181.680          37.300    27956898.807   111139702.665 6     -2153.949          37.600
G14  21784292.254   114477272.776 7      2619.574          45.700    21784291.9024  114477272.78746      2619.5744         36.2004   21784293.372    89203090.695 7      2041.227          47.700    21784293.4784   89203092.69846      2041.2274         36.0004   21784304.836    85486347.737 8      1956.176          50.000
E31  24046023.967   126362773.526 7      1200.312          47.300    24046036.540    94361888.387 8       896.336          51.700    24046034.087    96823493.666 8       919.719          51.700    24046035.306    95592693.900 8       908.027          51.400
R16  20014247.365   106912550.058 8     -2422.941          52.900    20014249.838   106912550.053 8     -2422.941          52.000    20014247.576    83154220.377 8     -1884.512          50.200    20014247.903    83154224.374 8     -1884.512          50.000
R15  23483751.954   125489973.039 5     -4376.316          30.500    23483755.447   125489973.006 5     -4376.316          30.200    23483758.217    97603307.367 5     -3403.801          32.300    23483759.236    97603301.378 5     -3403.801          31.900
E33  23517798.531   123586933.233 7       257.672          46.500    23517809.165    92289021.652 8       192.418          52.500    23517806.586    94696548.848 8       197.438          52.600    23517807.876    93492790.625 8       194.926          52.800
R18  20661825.262   110294282.325 8     -1837.895          50.100    20661827.772   110294282.319 8     -1837.895          49.500    20661825.098    85784460.330 8     -1429.473          48.300    20661825.893    85784474.327 8     -1429.473          48.500
E26  24749996.183   130062153.057 7     -1799.703          45.000    24750006.785    97124399.165 8     -1343.934          48.700    24750004.260    99658065.437 8     -1378.992          49.000    24750005.573    98391237.676 8     -1361.465          48.900
J04  36850431.663   193650337.085 6       352.668          38.500    36850435.918   150896389.634 6       274.809          38.400    36850446.728   144609082.311 7       263.355          43.900
J07  37278393.075   195899277.541 6       138.488          38.100    37278395.880   152648797.002 7       107.914          45.400    37278405.433   146288469.354 8       103.414          50.200
J03  38503876.520   202339224.709 7      -429.305          46.400    38503878.003   157666927.369 8      -334.523          49.400    38503887.361   151097507.630 9      -320.586          54.000
> 2023 05 28 02 12 30.0000000  0 26
R02  23322909.076   124455545.052 6      -206.645          41.000    23322911.412   124455545.046 6      -206.645          40.800    23322910.716    96798783.999 6      -160.723          38.400    23322911.556    96798779.991 6      -160.723          38.300
R19  20149139.661   107784338.197 6       396.434          40.100    20149141.507   107784338.190 6       396.434          39.000    20149137.021    83832284.697 8       308.336          48.200    20149137.241    83832278.693 8       308.336          48.400
R09  20548537.464   109728096.384 8      1914.785          50.800    20548539.745   109728096.382 8      1914.785          49.500    20548536.024    85344081.807 8      1489.277          50.000    20548536.662    85344079.810 8      1489.277          49.900
J02  37397973.516   196527713.325 7       739.844          46.300    37397975.811   153138495.485 8       576.504          49.200    37397984.746   146757770.576 8       552.480          53.200
G27  24939059.583   131055515.499 5     -2552.816          34.900    24939060.9694  131055515.46342     -2552.8164         14.1004   24939067.579   102121157.911 6     -1989.207          36.300    24939068.1014  102121155.90342     -1989.2074         14.3004   24939077.243    97866130.793 6     -1906.324          40.000
G01  19850500.594   104315152.689 8       -61.816          48.700    19850500.8024  104315152.68648       -61.8164         53.4004   19850503.423    81284569.218 8       -48.168          52.300    19850503.7264   81284582.21048       -48.1684         53.9004   19850510.250    77897755.982 9       -46.160          55.700
G02  22980151.039   120761554.599 7     -2445.207          43.300    22980149.8474  120761554.59145     -2445.2074         32.8004                                                                   22980149.8664   94099926.74745     -1905.3554         33.0004
G08  22167519.268   116491114.208 7     -1756.238          43.200    22167518.9674  116491114.19845     -1756.2384         33.6004   22167523.238    90772311.221 7     -1368.496          46.000    22167522.8144   90772313.20945     -1368.4964         33.4004   22167530.033    86990161.081 8     -1311.477          49.500
E14  20726972.756   108920902.893 5     -4592.531          35.900    20726988.058    81337050.665 6     -3429.488          41.400    20726985.679    83458878.216 7     -3518.953          42.200    20726986.964    82397970.311 6     -3474.219          41.700
G30  23239987.840   122126949.311 6     -1457.914          40.300    23239987.1714  122126949.31746     -1457.9144         38.5004   23239993.981    95163869.318 7     -1136.039          42.000    23239993.5054   95163875.32546     -1136.0394         38.1004   23240002.483    91198744.316 7     -1088.703          46.000
G03  22575521.341   118635206.792 6      3492.922          41.400    22575521.2134  118635206.80546      3492.9224         41.7004   22575527.519    92443053.563 7      2721.758          44.200    22575526.9494   92443060.55846      2721.7584         41.7004   22575535.036    88591309.392 7      2608.352          47.100
G21  21208388.452   111450899.147 7     -1980.059          47.600    21208387.5524  111450899.14846     -1980.0594         40.2004                                                                   21208387.3184   86844877.86246     -1542.9024         40.2004
G17  23992385.395   126080848.862 6      2383.742          36.900    23992385.2314  126080848.87045      2383.7424         33.7004   23992389.977    98244827.916 6      1857.461          39.800    23992389.6344   98244831.91845      1857.4614         33.6004
E12  26433483.549   138908936.848 5      2231.500          34.700    26433499.568   103730761.512 6      1666.379          41.700    26433495.961   106436768.284 6      1709.848          41.300    26433497.744   105083772.270 6      1688.113          41.500
G07  23321156.515   122553448.311 6     -2494.320          38.300    23321156.4574  122553448.31745     -2494.3204         33.0004   23321161.018    95496195.320 6     -1943.625          36.600    23321161.6394   95496193.32045     -1943.6254         33.0004
R03  22685051.082   121434923.900 7      2622.195          42.900    22685053.514   121434923.902 7      2622.195          42.100    22685052.358    94449427.882 7      2039.484          42.500    22685052.654    94449421.891 6      2039.484          41.700
E21  27973142.571   146999737.372 5     -2849.754          34.900    27973164.314   109772538.575 6     -2128.062          38.100    27973160.139   112636162.070 6     -2183.578          37.400    27973162.307   111204355.692 6     -2155.820          37.800
G14  21769371.947   114398866.564 7      2607.500          44.600    21769371.6554  114398866.57045      2607.5004         35.7004   21769372.798    89141994.957 7      2031.816          47.000    21769372.4344   89141996.96045      2031.8164         35.9004   21769385.041    85427797.671 8      1947.160          49.700
E31  24039204.564   126326937.322 7      1188.770          47.300    24039217.134    94335127.593 8       887.715          51.700    24039214.609    96796034.758 8       910.875          51.900    24039215.831    95565584.049 8       899.297          50.900
R16  20027916.975   106985573.238 8     -2445.145          52.400    20027920.025   106985573.233 8     -2445.145          51.700    20027917.748    83211016.103 8     -1901.781          50.200    20027918.088    83211020.105 8     -1901.781          50.200
E33  23516352.315   123579333.669 7       249.000          46.300    23516362.936    92283346.681 8       185.941          52.300    23516360.436    94690725.832 8       190.793          53.200    23516361.648    93487041.631 8       188.367          52.800
R18  20672167.031   110349487.742 8     -1842.332          49.900    20672169.767   110349487.739 8     -1842.332          49.500    20672166.842    85827397.846 8     -1432.926          48.500    20672167.517    85827411.841 8     -1432.926          48.800
E26  24760280.718   130116197.908 7     -1803.121          45.000    24760291.287    97164757.301 8     -1346.488          48.700    24760288.483    99699476.399 8     -1381.613          49.000    24760289.860    98432122.226 8     -1364.051          48.900
J04  36848421.713   193639774.461 6       351.625          39.000    36848425.721   150888159.071 6       273.992          38.600    36848436.734   144601194.690 7       262.578          44.200
J07  37277602.658   195895124.077 6       138.410          38.400    37277605.455   152645560.522 7       107.852          45.300    37277615.019   146285367.732 8       103.355          49.800
J03  38506324.118   202352086.428 7      -428.004          47.200    38506325.714   157676949.484 8      -333.508          49.900    38506334.862   151107112.159 8      -319.613          53.300
> 2023 05 28 02 13  0.0000000  0 26
R02  23324135.756   124462094.894 6      -230.207          40.500    23324138.811   124462094.895 6      -230.207          40.200    23324138.791    96803878.327 6      -179.047          38.600    23324139.404    96803874.325 6      -179.047          38.200
R19  20146945.608   107772601.592 6       386.004          40.400    20146947.714   107772601.590 6       386.004          39.300    20146943.238    83823156.252 8       300.227          48.600    20146943.242    83823150.252 8       300.227          48.500
R09  20537847.581   109671014.614 8      1890.629          50.300    20537850.162   109671014.610 8      1890.629          49.200    20537846.587    85299684.880 8      1470.488          50.000    20537846.997    85299682.889 8      1470.488          49.500
J02  37393754.026   196505539.377 7       738.441          47.100    37393756.492   153121217.068 8       575.410          49.300    37393765.198   146741212.094 8       551.434          52.900
G27  24953637.565   131132125.635 5     -2554.641          32.700    24953636.1634  131132125.65642     -2554.6414         14.3004   24953646.696   102180853.928 5     -1990.629          35.900    24953645.7534  102180851.91742     -1990.6294         14.9004   24953655.922    97923339.439 6     -1907.688          39.900
G01  19850900.029   104317251.204 8       -78.078          49.100    19850900.1614  104317251.20249       -78.0784         54.1004   19850902.795    81286204.428 8       -60.840          52.700    19850903.1754   81286217.41848       -60.8404         53.2004   19850909.532    77899323.056 9       -58.305          55.600
G02  22994116.551   120834943.485 7     -2447.273          43.800    22994115.0964  120834943.48445     -2447.2734         33.1004                                                                   22994114.7664   94157112.86245     -1906.9694         33.0004
G08  22177561.350   116543884.875 7     -1761.781          43.500    22177560.6844  116543884.87645     -1761.7814         33.5004   22177565.515    90813431.167 7     -1372.816          46.000    22177565.2284   90813433.15145     -1372.8164         33.3004   22177572.030    87029567.678 8     -1315.617          49.700
E14  20753249.598   109058985.372 6     -4613.027          36.600    20753264.270    81440163.910 6     -3444.793          40.600    20753262.083    83564681.395 7     -3534.656          42.500    20753263.210    82502428.522 6     -3489.723          41.700
G30  23248346.723   122170875.180 6     -1470.559          40.600    23248346.2504  122170875.18346     -1470.5594         38.4004   23248352.806    95198097.181 6     -1145.891          41.600    23248353.0774   95198103.17746     -1145.8914         38.1004   23248361.268    91231545.977 7     -1098.145          46.000
G03  22555603.609   118530540.050 6      3484.781          41.600    22555603.9734  118530540.05347      3484.7814         42.0004   22555609.813    92361495.164 7      2715.414          44.700    22555609.4784   92361502.16546      2715.4144         41.7004   22555617.695    88513149.283 7      2602.270          47.200
G21  21219710.191   111510397.768 7     -1986.508          47.200    21219709.5654  111510397.76646     -1986.5084         40.1004                                                                   21219709.7134   86891240.40646     -1547.9264         40.2004
G17  23978775.154   126009329.851 6      2383.977          36.300    23978775.4844  126009329.84645      2383.9774         33.5004   23978779.355    98189098.947 6      1857.645          39.200    23978779.6044   98189102.92845      1857.6454         33.4004
E12  26420761.707   138842075.331 5      2225.676          35.300    26420775.295   103680832.605 6      1662.031          41.000    26420772.867   106385536.853 6      1705.391          41.800    26420774.278   105033192.103 6      1683.711          41.500
G07  23335410.883   122628356.512 6     -2499.715          37.600    23335410.7464  122628356.51545     -2499.7154         32.7004   23335416.103    95554565.146 6     -1947.828          36.300    23335416.8934   95554563.15045     -1947.8284         32.7004
R03  22670398.498   121356483.579 7      2607.070          43.800    22670400.389   121356483.576 7      2607.070          42.600    22670399.106    94388418.945 7      2027.723          42.300    22670399.116    94388412.954 7      2027.723          42.500
E21  27989421.284   147085273.978 5     -2852.617          34.000    27989441.980   109836413.133 6     -2130.203          38.600    27989438.062   112701702.964 6     -2185.773          37.400    27989439.986   111269063.422 6     -2157.988          38.100
G14  21754519.975   114320819.263 7      2595.578          45.300    21754519.7044  114320819.27145      2595.5784         35.9004   21754520.955    89081178.911 7      2022.531          47.400    21754521.2714   89081180.90846      2022.5314         36.0004   21754533.098    85369515.633 8      1938.258          50.600
E31  24032450.739   126291445.252 7      1177.348          47.100    24032463.192    94308623.774 8       879.188          50.900    24032460.768    96768839.539 8       902.121          51.600    24032461.915    95538734.530 8       890.656          51.600
R16  20041710.960   107059258.127 8     -2467.109          52.300    20041713.968   107059258.128 8     -2467.109          51.800    20041711.871    83268326.505 8     -1918.863          51.000    20041712.170    83268330.505 8     -1918.863          50.100
E33  23514954.750   123571989.330 7       240.566          46.300    23514965.358    92277862.293 8       179.645          52.700    23514962.759    94685098.366 8       184.328          53.000    23514964.093    93481485.703 8       181.988          52.700
R18  20682532.909   110404820.865 8     -1846.543          49.800    20682535.262   110404820.867 8     -1846.543          49.400    20682532.955    85870434.694 8     -1436.199          48.400    20682533.339    85870448.690 7     -1436.199          47.900
E26  24770583.448   130170338.895 7     -1806.285          45.200    24770594.197    97205187.224 8     -1348.852          48.600    24770591.341    99740961.026 8     -1384.039          49.000    24770592.733    98473079.500 8     -1366.445          48.500
J04  36846416.652   193629240.847 6       350.500          38.500    36846421.326   150879951.112 6       273.117          39.300    36846432.113   144593328.727 7       261.738          44.100
J07  37276811.892   195890969.684 6       138.605          37.300    37276814.941   152642323.341 7       108.004          45.400    37276824.490   146282265.422 8       103.504          49.900
J03  38508762.830   202364901.307 7      -426.402          47.800    38508764.100   157686935.103 8      -332.262          49.800    38508773.488   151116681.711 8      -318.418          53.800
> 2023 05 28 02 13 30.0000000  0 26
R02  23325496.632   124469351.604 6      -253.730          40.900    23325499.101   124469351.604 6      -253.730          40.000    23325498.514    96809522.421 6      -197.348          38.300    23325499.449    96809518.423 6      -197.348          37.800
R19  20144809.566   107761172.675 6       375.770          40.300    20144811.439   107761172.674 6       375.770          39.300    20144806.578    83814267.114 8       292.266          48.200    20144806.634    83814261.111 8       292.266          48.100
R09  20527294.002   109614659.457 8      1866.348          50.200    20527296.577   109614659.460 8      1866.348          49.200    20527292.959    85255853.103 8      1451.605          50.400    20527293.261    85255851.109 8      1451.605          49.800
J02  37389542.436   196483407.305 7       737.066          45.300    37389544.664   153103971.279 8       574.340          49.400    37389553.689   146724684.877 8       550.406          52.900
G27  24968225.144   131208783.240 5     -2556.004          33.400    24968224.5874  131208783.22042     -2556.0044         13.9004   24968233.720   102240586.878 6     -1991.691          36.800    24968233.8014  102240584.90442     -1991.6914         13.8004   24968243.291    97980583.481 6     -1908.703          39.200
G01  19851391.972   104319836.508 8       -94.289          48.200    19851392.0264  104319836.50549       -94.2894         54.2004   19851394.835    81288218.946 8       -73.473          52.400    19851395.1684   81288231.93848       -73.4734         53.5004   19851401.522    77901253.639 9       -70.410          56.000
G02  23008093.512   120908395.013 7     -2449.535          43.500    23008092.8694  120908395.02145     -2449.5354         32.4004                                                                   23008092.3804   94214347.77345     -1908.7304         32.6004
G08  22187633.885   116596817.074 7     -1767.090          43.700    22187633.4844  116596817.06645     -1767.0904         33.5004   22187637.870    90854676.970 7     -1376.953          46.300    22187637.8584   90854678.95545     -1376.9534         33.5004   22187644.455    87069094.890 8     -1319.582          48.800
E14  20779641.589   109197677.790 6     -4633.156          36.400    20779657.638    81543732.608 6     -3459.824          41.500    20779654.220    83670951.930 6     -3550.078          41.400    20779656.068    82607348.137 6     -3504.953          41.600
G30  23256778.448   122215180.400 6     -1483.180          40.500    23256777.1714  122215180.40046     -1483.1804         37.9004   23256783.381    95232620.600 6     -1155.723          41.100    23256783.4204   95232626.58546     -1155.7234         37.8004   23256791.979    91264630.881 7     -1107.566          45.600
G03  22535732.915   118426119.066 6      3476.582          41.100    22535732.8894  118426119.06046      3476.5824         41.8004   22535738.843    92280128.275 7      2709.027          44.000    22535738.6524   92280135.27446      2709.0274         41.7004   22535746.892    88435172.710 7      2596.148          47.500
G21  21231069.816   111570090.713 8     -1993.016          48.400    21231069.0754  111570090.70846     -1993.0164         40.1004                                                                   21231069.0324   86937754.38346     -1553.0004         39.9004
G17  23965166.624   125937814.403 6      2383.680          36.900    23965166.7944  125937814.39945      2383.6804         32.6004   23965169.625    98133372.738 6      1857.414          37.700    23965170.1084   98133376.72545      1857.4144         32.7004
E12  26408074.102   138775397.437 6      2219.488          36.100    26408087.274   103631040.810 6      1657.410          40.400    26408084.528   106334446.135 6      1700.648          41.400    26408085.791   104982750.850 6      1679.027          41.300
G07  23349696.276   122703422.078 6     -2504.742          38.300    23349695.8394  122703422.08845     -2504.7424         33.0004   23349701.725    95613057.523 6     -1951.750          37.000    23349701.5324   95613055.52145     -1951.7504         33.1004
R03  22655828.403   121278496.391 7      2591.914          42.600    22655830.834   121278496.401 6      2591.914          41.800    22655830.213    94327762.452 7      2015.934          42.200    22655830.333    94327756.447 7      2015.934          42.400
E21  28005709.759   147170880.318 5     -2854.938          33.100    28005732.313   109900339.746 6     -2131.934          38.800    28005728.193   112767297.231 6     -2187.551          38.100    28005730.075   111333823.854 6     -2159.742          38.600
G14  21739736.199   114243132.459 7      2583.586          44.800    21739736.4204  114243132.46446      2583.5864         36.2004   21739737.792    89020643.761 7      2013.184          47.500    21739738.0124   89020645.76346      2013.1844         36.0004   21739749.459    85311502.796 8      1929.301          49.500
E31  24025762.237   126256297.599 7      1165.859          47.200    24025774.808    94282377.150 8       870.609          51.000    24025772.337    96741908.216 8       893.320          51.600    24025773.620    95512145.559 8       881.965          51.700
R16  20055627.986   107133600.484 8     -2488.988          51.700    20055630.960   107133600.481 8     -2488.988          51.300    20055628.780    83326148.249 8     -1935.879          50.300    20055629.169    83326152.254 8     -1935.879          49.900
E33  23513605.505   123564898.349 7       232.188          46.200    23513615.948    92272567.095 8       173.387          52.600    23513613.347    94679665.032 8       177.910          53.200    23513614.682    93476121.440 8       175.648          52.900
R18  20692921.557   110460278.911 8     -1850.656          50.200    20692924.631   110460278.909 8     -1850.656          49.100    20692921.913    85913568.684 8     -1439.398          48.500    20692922.744    85913582.683 8     -1439.398          48.000
E26  24780903.778   130224573.793 7     -1809.477          44.600    24780914.555    97245687.282 8     -1351.230          48.500    24780911.930    99782517.615 8     -1386.480          49.100    24780913.198    98514107.823 8     -1368.855          48.600
J04  36844417.245   193618735.452 6       349.605          37.600    36844422.750   150871765.131 6       272.418          39.300    36844433.217   144585483.837 7       261.070          44.200
J07  37276021.199   195886813.486 6       138.562          38.400    37276024.088   152639084.723 7       107.969          45.400    37276033.711   146279161.757 8       103.473          49.700
J03  38511192.121   202377668.179 7      -424.750          47.800    38511193.470   157696883.321 8      -330.973          49.900    38511202.989   151126215.414 8      -317.184          53.500
> 2023 05 28 02 14  0.0000000  0 26
R02  23326988.708   124477314.529 6      -277.277          39.300    23326990.860   124477314.526 6      -277.277          38.700    23326991.398    96815715.842 6      -215.660          38.200    23326991.288    96815711.847 6      -215.660          38.400
R19  20142728.924   107750048.990 6       365.652          40.000    20142731.513   107750048.981 6       365.652          39.000    20142727.175    83805615.379 8       284.395          48.100    20142727.063    83805609.380 8       284.395          48.000
R09  20516877.369   109559032.660 8      1842.000          50.100    20516879.681   109559032.658 8      1842.000          49.700    20516875.853    85212587.817 8      1432.668          50.300    20516876.219    85212585.821 8      1432.668          49.700
J02  37385338.702   196461316.509 7       735.641          47.200    37385341.070   153086757.657 8       573.227          48.900    37385349.936   146708188.484 8       549.344          53.500
G27  24982822.044   131285487.412 5     -2557.605          32.900    24982821.5514  131285487.40642     -2557.6054         13.1004   24982830.520   102300356.190 5     -1992.938          35.800    24982829.9254  102300354.17242     -1992.9384         13.0004   24982839.595    98037862.329 6     -1909.898          37.600
G01  19851976.142   104322906.345 8      -110.410          48.500    19851976.2204  104322906.34848      -110.4104         53.9004   19851978.936    81290611.026 8       -86.035          52.200    19851979.3034   81290624.01948       -86.0354         53.7004   19851985.743    77903546.047 9       -82.449          55.400
G02  23022082.406   120981906.556 7     -2451.480          43.800    23022082.1744  120981906.55745     -2451.4804         32.4004                                                                   23022080.8674   94271629.47845     -1910.2424         32.6004
G08  22197737.387   116649909.877 7     -1772.488          44.100    22197737.0054  116649909.87645     -1772.4884         33.7004   22197741.424    90896047.916 7     -1381.160          46.500    22197741.2314   90896049.90645     -1381.1604         33.4004   22197747.839    87108742.042 8     -1323.609          48.900
E14  20806148.925   109336974.926 6     -4653.426          36.500    20806164.916    81647752.879 6     -3474.961          41.000    20806162.045    83777685.820 6     -3565.613          41.300    20806163.265    82712725.221 6     -3520.289          41.200
G30  23265279.739   122259861.528 6     -1495.539          39.700    23265278.9294  122259861.54046     -1495.5394         37.3004   23265286.776    95267436.937 6     -1165.355          41.600    23265286.3674   95267442.93146     -1165.3554         37.0004   23265295.269    91297996.505 7     -1116.797          47.400
G03  22515909.770   118321946.121 6      3468.324          41.400    22515909.6064  118321946.12147      3468.3244         42.2004   22515914.820    92198954.668 7      2702.590          43.800    22515914.8514   92198961.66446      2702.5904         41.9004   22515923.382    88357381.358 7      2589.980          47.600
G21  21242465.363   111629975.195 8     -1999.324          48.400    21242464.5544  111629975.19846     -1999.3244         40.3004                                                                   21242464.4484   86984417.59746     -1557.9144         40.3004
G17  23951557.853   125866301.534 6      2383.617          37.500    23951557.9974  125866301.53345      2383.6174         32.9004   23951561.309    98077648.525 6      1857.363          37.100    23951561.3264   98077652.52245      1857.3634         33.1004
E12  26395418.419   138708902.544 5      2213.457          34.800    26395433.245   103581385.655 6      1652.906          40.400    26395430.693   106283495.601 6      1696.027          41.900    26395431.974   104932448.003 6      1674.465          40.700
G07  23364009.036   122778640.445 6     -2509.988          36.400    23364009.2194  122778640.45045     -2509.9884         31.8004   23364015.013    95671669.010 6     -1955.832          36.800    23364014.9104   95671666.99945     -1955.8324         32.1004
R03  22641345.315   121200965.261 7      2576.785          42.500    22641347.694   121200965.262 6      2576.785          41.700    22641346.753    94267460.619 7      2004.164          42.900    22641346.891    94267454.620 7      2004.164          42.400
E21  28022013.597   147256554.154 5     -2856.832          31.500    28022035.453   109964316.753 6     -2133.348          38.200    28022031.647   112832943.245 6     -2189.000          37.900    28022033.536   111398635.371 6     -2161.176          38.100
G14  21725022.243   114165807.838 7      2571.344          45.200    21725022.2714  114165807.84346      2571.3444         36.6004   21725023.561    88960390.843 7      2003.645          47.700    21725023.1244   88960392.84246      2003.6454         36.3004   21725035.200    85253760.413 8      1920.156          50.200
E31  24019139.484   126221494.675 7      1154.359          47.200    24019151.979    94256387.964 8       862.023          51.300    24019149.531    96715241.050 8       884.508          51.600    24019150.789    95485817.381 8       873.266          51.600
R16  20069667.651   107208595.715 8     -2510.695          52.400    20069670.517   107208595.713 8     -2510.695          51.400    20069668.375    83384477.784 8     -1952.762          50.700    20069668.617    83384481.791 8     -1952.762          50.000
E33  23512303.828   123558058.979 7       223.801          46.400    23512314.359    92267459.798 8       167.125          52.600    23512311.885    94674424.499 8       171.484          53.100    23512313.164    93470947.520 8       169.305          52.900
R18  20703334.360   110515859.643 8     -1854.715          50.300    20703336.978   110515859.639 8     -1854.715          48.800    20703334.183    85956798.124 8     -1442.555          48.000    20703334.938    85956812.118 7     -1442.555          47.900
E26  24791242.154   130278900.471 7     -1812.395          45.400    24791252.394    97286255.879 8     -1353.414          48.600    24791250.073    99824144.523 8     -1388.719          49.300    24791251.259    98555205.577 8     -1371.066          48.400
J04  36842424.404   193608257.595 6       348.777          38.800    36842428.634   150863600.599 6       271.773          39.200    36842439.254   144577659.513 7       260.453          44.300
J07  37275229.748   195882654.515 6       138.609          37.800    37275232.789   152635843.963 7       108.008          45.400    37275242.193   146276056.027 8       103.508          50.400
J03  38513612.217   202390385.902 7      -423.105          46.300    38513613.633   157706793.229 8      -329.691          49.300    38513623.027   151135712.416 8      -315.953          53.800
> 2023 05 28 02 14 30.0000000  0 26
R02  23328614.535   124485986.200 6      -300.941          41.300    23328616.614   124485986.195 6      -300.941          40.100    23328616.271    96822460.503 6      -234.066          37.500    23328616.107    96822456.504 6      -234.066          38.000
R19  20140706.651   107739231.583 6       355.352          40.000    20140709.164   107739231.586 6       355.352          39.000    20140705.053    83797201.867 7       276.387          47.900    20140704.913    83797195.869 8       276.387          48.100
R09  20506597.651   109504138.982 8      1817.402          50.200    20506599.805   109504138.978 8      1817.402          50.000    20506596.179    85169892.735 8      1413.535          50.000    20506596.547    85169890.738 8      1413.535          49.600
J02  37381143.333   196439269.453 7       734.074          46.700    37381145.853   153069578.120 8       572.008          49.200    37381154.528   146691724.756 8       548.172          53.000
G27  24997426.502   131362240.377 5     -2559.465          32.100    24997425.5934  131362240.39142     -2559.4654         12.8004   24997436.183   102360163.454 5     -1994.387          35.200    24997435.9204  102360161.46642     -1994.3874         12.7004   24997445.379    98095177.643 6     -1911.289          38.200
G01  19852652.962   104326461.630 8      -126.680          49.300    19852652.8984  104326461.63149      -126.6804         54.2004   19852655.346    81293381.378 8       -98.711          51.700    19852655.7054   81293394.37549       -98.7114         54.0004   19852662.307    77906200.972 9       -94.598          54.900
G02  23036083.137   121055479.302 7     -2453.492          44.500    23036082.3174  121055479.30445     -2453.4924         32.5004                                                                   23036081.6194   94328958.84645     -1911.8124         32.6004
G08  22207871.500   116703166.201 7     -1778.051          44.200    22207870.9994  116703166.19545     -1778.0514         33.2004   22207875.560    90937546.285 7     -1385.492          45.800    22207875.2154   90937548.27745     -1385.4924         33.1004   22207882.447    87148511.306 8     -1327.766          48.900
E14  20832771.298   109476874.437 6     -4673.781          36.500    20832787.675    81752222.999 6     -3490.160          41.300    20832784.171    83884881.270 6     -3581.211          41.500    20832785.762    82818558.007 6     -3535.684          41.500
G30  23273853.402   122304918.314 6     -1508.234          38.600    23273853.0584  122304918.32146     -1508.2344         36.4004   23273861.265    95302545.968 6     -1175.246          41.600    23273860.7884   95302551.96446     -1175.2464         36.2004   23273869.618    91331642.655 7     -1126.277          46.600
G03  22496134.044   118218026.591 7      3459.652          42.100    22496134.0084  118218026.58946      3459.6524         41.9004   22496140.499    92117978.546 7      2695.832          44.800    22496139.4784   92117985.54246      2695.8324         41.9004   22496147.949    88279779.254 7      2583.508          47.400
G21  21253897.671   111690050.824 7     -2005.812          47.400    21253896.5784  111690050.82846     -2005.8124         40.2004                                                                   21253896.4764   87031229.76246     -1562.9694         40.1004
G17  23937950.746   125794793.463 6      2383.414          37.500    23937950.4704  125794793.46845      2383.4144         34.4004   23937953.898    98021928.093 6      1857.207          39.100    23937953.6424   98021932.08845      1857.2074         34.7004
E12  26382800.467   138642592.939 5      2207.328          34.800    26382814.815   103531868.884 6      1648.328          40.200    26382812.667   106232687.061 6      1691.328          41.200    26382813.637   104882285.351 6      1669.828          40.800
G07  23378352.715   122854010.999 6     -2515.117          38.600    23378352.2804  122854011.00745     -2515.1174         32.7004   23378357.622    95730399.070 6     -1959.832          36.000    23378358.0924   95730397.06445     -1959.8324         32.7004
R03  22626947.755   121123896.471 7      2561.020          43.300    22626950.072   121123896.473 7      2561.020          42.400    22626949.796    94207518.418 7      1991.906          43.500    22626949.850    94207512.417 7      1991.906          43.300
E21  28038330.170   147342296.491 5     -2859.363          32.300    28038352.419   110028344.925 6     -2135.238          37.900    28038348.421   112898641.739 6     -2190.941          37.600    28038350.152   111463498.705 6     -2163.090          37.600
G14  21710377.664   114088850.157 7      2558.965          45.700    21710377.3384  114088850.16546      2558.9654         36.0004   21710378.663    88900423.840 7      1994.000          47.600    21710378.7844   88900425.83945      1994.0004         35.8004   21710390.818    85196292.041 8      1910.918          50.000
E31  24012582.816   126187040.012 7      1142.516          47.100    24012595.458    94230658.833 8       853.176          51.000    24012593.080    96688840.730 8       875.434          51.700    24012594.231    95459752.655 8       864.305          51.800
R16  20083829.198   107284242.865 8     -2532.461          52.300    20083831.812   107284242.861 8     -2532.461          51.700    20083829.703    83443314.367 8     -1969.691          50.700    20083830.145    83443318.370 8     -1969.691          49.800
E33  23511050.393   123551472.533 7       215.230          46.600    23511060.982    92262541.370 8       160.723          52.800    23511058.501    94669377.762 8       164.914          53.100    23511059.755    93465964.941 8       162.820          52.400
R18  20713769.423   110571563.533 8     -1858.922          50.400    20713772.018   110571563.532 8     -1858.922          49.500    20713769.483    86000123.342 8     -1445.828          48.500    20713769.846    86000137.344 8     -1445.828          48.200
E26  24801597.302   130333319.958 7     -1815.621          44.400    24801607.995    97326893.782 7     -1355.820          47.700    24801605.856    99865842.543 8     -1391.191          49.300    24801606.861    98596373.539 8     -1373.504          48.600
J04  36840436.013   193597809.775 6       347.762          38.500    36840440.306   150855459.484 6       270.984          39.400    36840450.933   144569857.621 7       259.691          44.300
J07  37274438.471   195878495.052 6       138.711          38.900    37274440.962   152632602.805 7       108.086          45.400    37274450.663   146272949.914 8       103.582          50.200
J03  38516023.243   202403056.498 7      -421.684          47.000    38516025.045   157716666.423 8      -328.586          49.800    38516034.192   151145174.226 8      -314.895          53.400
> 2023 05 28 02 15  0.0000000  0 26
R02  23330371.217   124495365.050 6      -324.543          40.000    23330373.961   124495365.038 6      -324.543          39.800    23330371.989    96829755.179 6      -252.422          37.900    23330373.642    96829751.185 6      -252.422          37.300
R19  20138740.123   107728717.253 6       345.270          39.800    20138743.715   107728717.254 6       345.270          38.900    20138739.563    83789024.080 8       268.543          49.000    20138739.526    83789018.077 8       268.543          48.700
R09  20496454.913   109449979.624 8      1792.926          50.200    20496457.417   109449979.622 8      1792.926          49.500    20496453.598    85127768.805 8      1394.496          50.200    20496454.115    85127766.810 8      1394.496          49.800
J02  37376956.097   196417265.152 7       732.750          46.800    37376958.439   153052431.892 8       570.973          48.800    37376967.215   146675292.952 8       547.184          53.300
G27  25012042.128   131439040.768 5     -2560.676          33.200    25012042.9614  131439040.77542     -2560.6764         12.6004   25012051.304   102420007.765 5     -1995.332          35.600    25012051.5664  102420005.74642     -1995.3324         12.7004   25012059.601    98152528.351 6     -1912.191          37.800
G01  19853421.173   104330499.640 8      -142.738          50.200    19853421.1484  104330499.64349      -142.7384         54.0004   19853423.811    81296527.888 8      -111.227          52.200    19853424.1164   81296540.88348      -111.2274         53.9004   19853430.698    77909216.377 9      -106.590          55.400
G02  23050094.677   121129109.735 7     -2455.395          42.800    23050093.3664  121129109.74545     -2455.3954         32.9004                                                                   23050093.4014   94386333.17445     -1913.2934         32.9004
G08  22218036.472   116756584.493 7     -1783.352          43.600    22218036.3954  116756584.48945     -1783.3524         33.1004   22218040.872    90979170.871 7     -1389.625          45.700    22218040.9794   90979172.86545     -1389.6254         32.9004   22218047.532    87188401.510 8     -1331.723          48.900
E14  20859507.350   109617370.370 5     -4693.090          35.100    20859523.162    81857138.485 6     -3504.578          41.600    20859519.823    83992533.705 6     -3596.004          41.500    20859521.470    82924841.969 6     -3550.289          41.500
G30  23282498.384   122350346.839 6     -1520.527          38.600    23282497.7734  122350346.83846     -1520.5274         36.4004   23282505.232    95337944.666 6     -1184.828          41.200    23282504.8014   95337950.66546     -1184.8284         36.3004   23282514.049    91365566.375 7     -1135.461          47.300
G03  22476407.048   118114362.407 6      3451.066          41.900    22476407.7434  118114362.40547      3451.0664         42.2004   22476413.220    92037201.364 7      2689.145          44.000    22476412.5684   92037208.36747      2689.1454         42.1004   22476421.400    88202367.831 7      2577.098          47.600
G21  21265365.443   111750314.834 7     -2011.945          47.100    21265364.6394  111750314.83746     -2011.9454         40.2004                                                                   21265364.3874   87078188.72346     -1567.7504         40.2004
G17  23924343.278   125723288.899 6      2383.410          37.100    23924343.5154  125723288.88545      2383.4104         34.5004   23924346.442    97966210.351 6      1857.203          38.900    23924347.3324   97966214.34145      1857.2034         34.3004
E12  26370217.996   138576467.663 5      2200.980          35.300    26370231.345   103482489.738 6      1643.590          40.200    26370228.800   106182019.761 6      1686.465          41.300    26370230.169   104832262.120 6      1665.027          40.800
G07  23392723.082   122929529.595 6     -2519.793          36.900    23392722.6594  122929529.58445     -2519.7934         31.8004   23392728.529    95789244.458 5     -1963.477          35.700    23392728.8724   95789242.44345     -1963.4774         31.9004
R03  22612638.204   121047293.006 7      2545.559          43.300    22612639.960   121047293.002 7      2545.559          43.000    22612639.202    94147938.135 7      1979.879          42.800    22612639.485    94147932.136 7      1979.879          43.300
E21  28054659.314   147428104.918 5     -2861.520          32.800    28054680.942   110092422.527 6     -2136.848          37.800    28054677.254   112964390.949 6     -2192.590          37.900    28054679.322   111528412.115 6     -2164.719          37.700
G14  21695803.163   114012260.669 7      2546.723          44.700    21695803.2964  114012260.66546      2546.7234         36.2004   21695804.081    88840743.740 7      1984.461          47.000    21695803.9544   88840745.73346      1984.4614         36.2004   21695816.406    85139098.616 8      1901.773          50.500
E31  24006092.693   126152933.439 7      1131.004          46.800    24006105.342    94205189.637 8       844.582          51.700    24006102.693    96662707.119 8       866.613          51.800    24006104.020    95433951.252 8       855.598          51.700
R16  20098111.839   107360537.339 8     -2554.000          52.400    20098114.433   107360537.339 8     -2554.000          51.200    20098112.344    83502654.429 8     -1986.441          50.300    20098112.666    83502658.429 8     -1986.441          50.200
E33  23509844.689   123545136.791 7       206.992          46.300    23509855.394    92257810.151 8       154.574          52.600    23509852.880    94664523.118 8       158.605          53.100    23509854.144    93461172.007 8       156.590          52.700
R18  20724227.035   110627387.877 8     -1862.938          49.700    20724229.907   110627387.874 8     -1862.938          49.300    20724226.954    86043542.262 8     -1448.953          48.300    20724227.604    86043556.255 7     -1448.953          47.800
E26  24811970.359   130387829.740 7     -1818.617          44.700    24811981.081    97367599.118 8     -1358.059          48.600    24811978.550    99907609.759 8     -1393.484          48.700    24811979.794    98637609.815 8     -1375.773          48.200
J04  36838453.253   193587390.941 6       346.824          38.600    36838457.367   150847340.962 6       270.254          39.300    36838468.185   144562077.367 7       258.992          44.400
J07  37273646.113   195874333.840 6       138.516          38.700    37273649.035   152629360.300 7       107.934          45.500    37273658.803   146269842.506 8       103.438          50.400
J03  38518425.261   202415678.429 7      -419.953          47.300    38518427.032   157726501.691 8      -327.234          50.300    38518436.052   151154599.692 8      -313.602          53.600
> 2023 05 28 02 15 30.0000000  0 26
R02  23332261.876   124505452.436 6      -348.066          41.400    23332264.295   124505452.440 6      -348.066          40.300    23332263.308    96837600.984 6      -270.719          37.400    23332264.053    96837596.982 6      -270.719          37.700
R19  20136832.437   107718506.295 6       335.484          40.000    20136834.896   107718506.297 6       335.484          39.100    20136830.403    83781082.245 7       260.930          47.700    20136830.447    83781076.240 8       260.930          48.500
R09  20486450.862   109396558.291 8      1768.383          50.300    20486453.288   109396558.293 8      1768.383          49.500    20486449.518    85086218.882 8      1375.406          50.700    20486450.154    85086216.891 8      1375.406          49.800
J02  37372777.179   196395305.077 7       731.242          46.200    37372779.630   153035320.124 8       569.801          49.100    37372788.388   146658894.174 8       546.059          52.800
G27  25026666.348   131515889.798 5     -2562.168          33.700    25026665.9734  131515889.78942     -2562.1684         12.9004   25026675.872   102479889.931 6     -1996.496          36.300    25026676.5494  102479887.94542     -1996.4964         12.5004   25026684.152    98209915.381 6     -1913.309          38.400
G01  19854281.141   104335020.150 8      -158.652          49.000    19854281.3094  104335020.14748      -158.6524         53.6004   19854284.107    81300050.360 8      -123.625          51.700    19854284.3964   81300063.36048      -123.6254         53.4004   19854290.983    77912592.086 9      -118.473          55.700
G02  23064116.949   121202798.046 7     -2457.191          43.900    23064116.0894  121202798.03845     -2457.1914         32.2004                                                                   23064115.0044   94443752.59945     -1914.6954         32.2004
G08  22228232.881   116810165.991 7     -1788.703          42.600    22228232.6274  116810165.98545     -1788.7034         33.2004   22228237.571    91020922.637 7     -1393.797          46.200    22228237.0664   91020924.62245     -1393.7974         32.8004   22228243.929    87228413.598 8     -1335.719          49.100
E14  20886355.572   109758459.673 5     -4712.836          35.500    20886372.292    81962497.058 6     -3519.324          40.900    20886368.451    84100640.817 6     -3611.133          40.800    20886370.178    83031574.811 6     -3565.230          41.100
G30  23291214.613   122396145.722 6     -1532.719          40.100    23291213.8954  122396145.73746     -1532.7194         37.7004   23291221.463    95373631.986 6     -1194.324          41.900    23291221.0134   95373637.98746     -1194.3244         37.7004   23291229.422    91399766.693 7     -1144.562          46.700
G03  22456730.056   118010957.893 6      3442.520          41.900    22456730.3424  118010957.88347      3442.5204         42.4004   22456735.660    91956626.531 7      2682.484          44.200    22456735.3994   91956633.52547      2682.4844         42.4004   22456744.066    88125150.297 7      2570.715          47.600
G21  21276868.776   111810765.825 7     -2018.125          47.100    21276867.8814  111810765.82146     -2018.1254         40.0004                                                                   21276868.0874   87125293.37046     -1572.5664         40.1004
G17  23910738.404   125651788.955 6      2383.168          38.900    23910737.6484  125651788.96245      2383.1684         35.4004   23910741.857    97910496.214 6      1857.016          39.600    23910740.9844   97910500.20745      1857.0164         35.5004
E12  26357669.948   138510527.879 5      2194.801          35.200    26357683.314   103433249.126 6      1638.973          40.300    26357680.894   106131494.583 6      1681.730          40.900    26357681.992   104782379.232 6      1660.352          40.900
G07  23407121.685   123005194.018 6     -2524.590          37.200    23407121.5424  123005194.01845     -2524.5904         31.0004   23407127.797    95848203.543 5     -1967.211          35.200    23407127.8824   95848201.51945     -1967.2114         30.7004
R03  22598415.561   120971159.901 7      2529.965          43.000    22598417.313   120971159.901 7      2529.965          42.700    22598416.491    94088723.691 7      1967.750          43.300    22598416.972    94088717.697 7      1967.750          43.600
E21  28071000.018   147513979.022 5     -2863.500          31.100    28071022.343   110156549.160 6     -2138.328          36.600    28071019.070   113030190.492 6     -2194.109          36.900    28071020.774   111593375.196 6     -2166.219          37.000
G14  21681299.202   113936043.019 7      2534.352          46.800    21681299.4314  113936043.02446      2534.3524         36.7004   21681300.454    88781353.383 7      1974.816          47.400    21681300.4694   88781355.38646      1974.8164         36.5004   21681312.555    85082182.871 8      1892.535          51.500
E31  23999669.393   126119177.453 7      1119.375          46.700    23999681.798    94179982.244 8       835.898          51.600    23999679.287    96636842.140 8       857.703          52.300    23999680.521    95408415.068 8       846.801          51.600
R16  20112515.296   107437476.784 8     -2575.301          52.700    20112517.661   107437476.786 8     -2575.301          51.400    20112515.417    83562496.130 8     -2003.012          49.900    20112515.938    83562500.129 8     -2003.012          50.100
E33  23508686.593   123539052.036 7       198.707          46.100    23508697.549    92253266.363 8       148.387          52.900    23508695.021    94659860.794 8       152.254          53.700    23508696.297    93456568.954 8       150.320          53.000
R18  20734707.559   110683332.112 8     -1866.777          50.100    20734710.365   110683332.105 8     -1866.777          49.000    20734707.362    86087054.398 8     -1451.938          48.600    20734708.123    86087068.396 7     -1451.938          47.800
E26  24822360.029   130442429.754 7     -1821.539          44.400    24822371.075    97408371.831 8     -1360.242          48.000    24822368.490    99949446.115 8     -1395.727          48.700    24822369.818    98678914.347 8     -1377.984          48.200
J04  36836475.621   193577002.486 6       345.879          39.000    36836480.757   150839246.090 6       269.516          39.100    36836491.218   144554319.807 7       258.285          44.600
J07  37272854.425   195870171.950 6       139.000          37.900    37272857.070   152626117.254 7       108.309          45.000    37272866.874   146266734.587 8       103.797          49.700
J03  38520818.136   202428252.623 8      -418.359          48.000    38520819.753   157736299.769 8      -325.996          49.800    38520828.807   151163989.516 8      -312.410          53.800
> 2023 05 28 02 16  0.0000000  0 26
R02  23334283.956   124516246.249 6      -371.695          41.200    23334286.567   124516246.250 6      -371.695          40.500    23334285.553    96845996.234 6      -289.098          36.900    23334286.875    96845992.229 6      -289.098          37.100
R19  20134979.921   107708594.557 6       325.457          40.200    20134982.268   107708594.554 6       325.457          39.400    20134977.384    83773373.122 8       253.133          48.600    20134977.670    83773367.120 8       253.133          48.100
R09  20476585.265   109343874.865 8      1743.723          50.400    20476587.661   109343874.865 8      1743.723          49.400    20476583.807    85045242.881 8      1356.227          50.400    20476584.141    85045240.885 8      1356.227          49.700
J02  37368606.400   196373387.318 7       729.805          45.800    37368608.810   153018241.334 8       568.680          49.000    37368617.539   146642526.992 8       544.984          52.900
G27  25041299.308   131592785.142 5     -2563.805          33.400    25041297.2404  131592785.13242     -2563.8054         12.7004   25041307.586   102539808.179 5     -1997.770          34.800    25041308.3754  102539806.16342     -1997.7704         13.1004   25041318.007    98267336.999 6     -1914.527          39.800
G01  19855232.571   104340019.570 8      -174.719          49.600    19855232.7234  104340019.57048      -174.7194         53.8004   19855235.537    81303946.026 8      -136.145          52.300    19855235.7984   81303959.02248      -136.1454         53.8004   19855242.336    77916325.432 9      -130.473          55.700
G02  23078149.894   121276540.413 7     -2459.035          42.700    23078148.6104  121276540.41045     -2459.0354         32.2004                                                                   23078148.4274   94501214.12945     -1916.1294         32.1004
G08  22238460.200   116863908.999 7     -1794.156          43.200    22238459.7044  116863908.99345     -1794.1564         33.1004   22238464.399    91062800.238 7     -1398.043          46.200    22238463.6854   91062802.22845     -1398.0434         32.8004   22238470.863    87268546.293 8     -1339.793          48.400
E14  20913315.604   109900135.482 6     -4732.148          36.800    20913332.149    82068293.579 6     -3533.750          40.900    20913329.092    84209197.285 6     -3625.934          41.200    20913330.469    83138751.303 6     -3579.840          41.400
G30  23299999.809   122442310.269 6     -1544.816          39.200    23299998.8964  122442310.27246     -1544.8164         36.5004   23300005.696    95409604.233 6     -1203.754          41.600    23300005.7884   95409610.22946     -1203.7544         36.9004   23300014.805    91434240.047 7     -1153.598          47.100
G03  22437102.289   117907814.051 6      3433.605          41.500    22437102.1864  117907814.05647      3433.6054         42.0004   22437108.128    91876254.826 7      2675.539          44.500    22437107.5344   91876261.82046      2675.5394         41.7004   22437116.010    88048127.434 7      2564.059          47.200
G21  21288407.065   111871399.745 7     -2024.191          47.500    21288406.2104  111871399.74746     -2024.1914         40.3004                                                                   21288406.2374   87172540.57646     -1577.2934         39.9004
G17  23897132.291   125580291.437 6      2383.141          38.300    23897132.3084  125580291.43745      2383.1414         35.2004   23897134.839    97854783.982 6      1856.992          38.700    23897135.2384   97854787.97945      1856.9924         34.9004
E12  26345156.441   138444771.666 5      2188.988          35.100    26345170.070   103384145.543 6      1634.637          40.400    26345168.045   106081110.057 6      1677.277          41.400    26345169.056   104732635.173 6      1655.957          40.800
G07  23421546.707   123080998.901 6     -2529.328          37.400    23421547.3034  123080998.89745     -2529.3284         31.7004   23421552.974    95907272.058 5     -1970.906          35.800    23421552.7464   95907270.04645     -1970.9064         31.8004
R03  22584280.725   120895499.356 7      2514.055          42.500    22584283.289   120895499.364 6      2514.055          41.900    22584282.457    94029876.796 7      1955.375          43.100    22584282.458    94029870.795 7      1955.375          42.400
E21  28087355.081   147599915.290 5     -2865.289          32.500    28087375.348   110220722.205 6     -2139.664          36.600    28087372.038   113096037.616 6     -2195.484          37.400    28087373.702   111658385.284 6     -2167.574          37.200
G14  21666866.286   113860197.489 7      2521.918          45.200    21666866.3834  113860197.49746      2521.9184         36.2004   21666867.375    88722253.015 7      1965.133          47.200    21666867.5814   88722255.01246      1965.1334         36.1004   21666879.482    85025545.011 8      1883.250          50.600
E31  23993312.074   126085771.007 7      1107.598          46.800    23993324.654    94155035.870 8       827.102          51.600    23993322.298    96611244.994 8       848.680          52.200    23993323.563    95383143.308 8       837.891          51.300
R16  20127037.825   107515055.475 8     -2596.711          52.000    20127040.576   107515055.470 8     -2596.711          51.300    20127038.144    83622835.017 8     -2019.664          50.100    20127038.812    83622839.020 8     -2019.664          50.300
E33  23507576.173   123533215.169 7       190.395          46.100    23507586.879    92248907.690 8       142.180          52.800    23507584.281    94655388.415 8       145.887          52.700    23507585.568    93452153.428 8       144.031          53.100
R18  20745209.405   110739392.622 8     -1870.668          49.700    20745212.040   110739392.624 8     -1870.668          48.900    20745209.491    86130657.012 8     -1454.965          48.300    20745209.975    86130671.008 8     -1454.965          48.800
E26  24832766.693   130497116.574 7     -1824.410          44.700    24832777.522    97449209.374 7     -1362.383          47.800    24832775.079    99991348.984 8     -1397.926          48.500    24832776.292    98720284.554 8     -1380.156          48.000
J04  36834504.515   193566642.467 6       344.945          38.800    36834509.689   150831173.395 6       268.789          39.500    36834519.858   144546583.476 7       257.590          44.900
J07  37272061.891   195866007.364 6       138.832          37.300    37272064.896   152622872.103 7       108.184          45.000    37272074.382   146263624.652 8       103.676          50.000
J03  38523201.040   202440776.698 7      -416.672          47.900    38523203.032   157746058.792 8      -324.680          50.000    38523212.053   151173341.913 8      -311.148          53.200
> 2023 05 28 02 16 30.0000000  0 26
R02  23336440.059   124527747.096 6      -394.953          41.000    23336442.102   124527747.087 6      -394.953          40.300    23336442.109    96854941.301 6      -307.188          37.900    23336441.749    96854937.325 6      -307.188          37.700
R19  20133182.848   107698981.606 6       315.582          40.300    20133185.309   107698981.603 6       315.582          39.200    20133180.706    83765896.400 8       245.453          48.400    20133180.688    83765890.401 8       245.453          48.300
R09  20466858.302   109291932.976 8      1719.020          51.000    20466860.425   109291932.977 8      1719.020          49.400    20466856.727    85004843.647 8      1337.016          50.500    20466857.029    85004841.649 8      1337.016          49.800
J02  37364443.702   196351512.981 7       728.410          46.900    37364446.356   153001196.371 8       567.594          48.700    37364455.083   146626192.230 8       543.941          52.900
G27  25055940.407   131669727.613 5     -2565.453          33.600    25055940.8974  131669727.61742     -2565.4534         13.2004   25055951.032   102599763.164 6     -1999.055          36.900    25055949.9044  102599761.18142     -1999.0554         12.8004   25055959.371    98324793.840 6     -1915.762          38.900
G01  19856275.352   104345497.307 8      -190.445          48.700    19856275.2334  104345497.31248      -190.4454         53.7004   19856277.650    81308214.404 8      -148.398          52.400    19856278.1434   81308227.39749      -148.3984         54.0004   19856284.668    77920415.962 9      -142.215          55.000
G02  23092192.091   121350336.108 7     -2460.707          42.900    23092191.4554  121350336.10945     -2460.7074         32.1004                                                                   23092190.8484   94558717.23645     -1917.4344         32.0004
G08  22248717.749   116917814.260 7     -1799.488          43.400    22248717.6114  116917814.24145     -1799.4884         33.1004   22248722.447    91104804.265 7     -1402.199          46.000    22248721.8964   91104806.25945     -1402.1994         32.9004   22248728.809    87308800.152 8     -1343.773          49.100
E14  20940386.341   110042394.236 6     -4751.668          36.300    20940403.399    82174525.444 6     -3548.324          40.700    20940400.036    84318200.456 6     -3640.887          40.800    20940401.599    83246368.825 6     -3594.605          40.900
G30  23308854.045   122488838.705 6     -1557.039          39.000    23308852.6924  122488838.71145     -1557.0394         35.6004   23308859.764    95445860.018 6     -1213.277          41.000    23308859.9864   95445866.02146     -1213.2774         36.1004   23308868.908    91468985.156 7     -1162.727          47.200
G03  22417524.941   117804934.852 6      3424.930          41.800    22417525.0024  117804934.85147      3424.9304         42.0004   22417530.907    91796089.311 7      2668.773          44.200    22417530.3244   91796096.30547      2668.7734         42.0004   22417539.096    87971302.182 7      2557.578          47.900
G21  21299979.710   111932215.335 7     -2030.133          47.400    21299978.8664  111932215.33646     -2030.1334         39.6004                                                                   21299978.8994   87219929.33646     -1581.9224         39.5004
G17  23883527.222   125508797.234 6      2382.980          36.600    23883526.3594  125508797.23945      2382.9804         33.3004   23883529.691    97799074.368 6      1856.867          37.900    23883529.9874   97799078.34845      1856.8674         33.2004
E12  26332678.982   138379200.093 5      2182.438          35.500    26332692.596   103335179.888 6      1629.742          40.100    26332689.526   106030867.006 6      1672.258          40.500    26332690.905   104683030.823 6      1651.000          40.500
G07  23435999.513   123156942.334 6     -2533.703          38.600    23435999.1714  123156942.33845     -2533.7034         32.7004   23436003.756    95966448.512 6     -1974.312          36.300    23436004.6874   95966446.50245     -1974.3124         32.9004
R03  22570236.045   120820316.080 7      2498.164          43.400    22570238.370   120820316.086 7      2498.164          42.600    22570237.354    93971401.086 7      1943.016          42.500    22570237.040    93971395.097 7      1943.016          42.200
E21  28103719.091   147685913.442 5     -2867.730          32.700    28103740.321   110284941.436 6     -2141.488          36.300    28103737.168   113161932.143 6     -2197.352          37.600    28103738.691   111723442.165 6     -2169.418          37.100
G14  21652504.973   113784727.621 7      2509.348          45.500    21652504.9874  113784727.62446      2509.3484         36.6004   21652505.966    88663445.357 7      1955.336          47.300    21652505.8964   88663447.35546      1955.3364         36.7004   21652517.976    84969187.679 8      1873.863          50.200
E31  23987022.156   126052716.180 7      1095.984          47.200    23987034.569    94130352.063 8       818.430          51.100    23987032.076    96585917.263 8       839.781          52.300    23987033.284    95358137.539 8       829.105          51.800
R16  20141680.558   107593270.753 8     -2617.789          52.500    20141682.893   107593270.748 8     -2617.789          51.500    20141680.610    83683669.050 8     -2036.059          50.100    20141680.992    83683673.048 8     -2036.059          50.000
E33  23506512.761   123527626.125 7       182.207          46.500    23506523.240    92244734.078 8       136.066          53.000    23506520.636    94651105.919 8       139.613          53.100    23506521.882    93447925.375 8       137.840          52.700
R18  20755732.793   110795568.574 8     -1874.395          50.000    20755735.802   110795568.574 8     -1874.395          49.000    20755733.129    86174349.408 8     -1457.863          48.400    20755733.690    86174363.400 7     -1457.863          47.600
E26  24843190.205   130551889.896 7     -1827.219          44.300    24843200.711    97490111.492 7     -1364.480          47.700    24843198.056   100033318.126 8     -1400.074          48.700    24843199.350    98761720.186 8     -1382.277          48.100
J04  36832538.355   193556311.994 6       343.867          38.000    36832543.702   150823123.715 6       267.949          39.800    36832553.976   144538869.204 7       256.785          45.400
J07  37271269.157   195861840.850 6       138.949          38.800    37271272.117   152619625.460 7       108.270          45.100    37271281.546   146260513.279 8       103.762          49.100
J03  38525575.138   202453251.258 7      -415.055          47.600    38525576.858   157755779.226 8      -323.418          49.500    38525585.897   151182657.330 8      -309.945          53.700
> 2023 05 28 02 17  0.0000000  0 26
R02  23338727.286   124539954.440 6      -418.387          40.700    23338729.625   124539954.436 6      -418.387          40.400    23338729.733    96864435.958 6      -325.414          38.400    23338729.670    96864431.969 6      -325.414          38.300
R19  20131441.664   107689665.427 6       305.688          40.400    20131443.286   107689665.426 6       305.688          39.300    20131439.006    83758650.502 8       237.758          48.000    20131438.981    83758644.505 8       237.758          48.500
R09  20457270.136   109240734.363 8      1694.289          50.200    20457272.616   109240734.361 8      1694.289          49.900    20457268.601    84965022.515 8      1317.781          50.700    20457269.280    84965020.515 8      1317.781          49.700
J02  37360289.311   196329681.817 7       727.090          47.000    37360291.942   152984185.055 8       566.562          49.100    37360300.722   146609889.713 8       542.957          53.000
G27  25070591.516   131746716.844 5     -2567.199          33.400    25070590.6154  131746716.83842     -2567.1994         13.9004   25070601.028   102659754.571 6     -2000.414          36.000    25070601.8464  102659752.55842     -2000.4144         13.6004   25070609.601    98382285.527 6     -1917.062          37.900
G01  19857408.057   104351451.437 8      -206.324          48.600    19857408.2404  104351451.43549      -206.3244         54.4004   19857410.770    81312853.992 8      -160.773          52.800    19857411.1514   81312866.98248      -160.7734         53.7004   19857417.587    77924862.236 9      -154.074          55.000
G02  23106245.316   121424183.308 7     -2462.324          42.500    23106244.1144  121424183.30545     -2462.3244         32.0004                                                                   23106243.7074   94616260.47345     -1918.6914         32.1004
G08  22259006.635   116971880.616 7     -1804.781          42.100    22259006.3884  116971880.60045     -1804.7814         33.0004   22259011.099    91146933.828 7     -1406.324          45.900    22259009.9914   91146935.82245     -1406.3244         32.8004   22259017.244    87349174.298 8     -1347.727          48.900
E14  20967568.228   110185230.772 5     -4770.566          35.500    20967583.797    82281188.796 6     -3562.438          39.800    20967581.505    84427646.358 6     -3655.371          41.200    20967582.606    83354423.451 6     -3608.902          40.600
G30  23317776.023   122535727.872 6     -1568.871          38.400    23317775.4074  122535727.88245     -1568.8714         35.6004   23317783.246    95482396.927 6     -1222.496          41.200    23317782.7434   95482402.91545     -1222.4964         35.3004   23317791.766    91503999.624 7     -1171.559          46.800
G03  22397998.523   117702322.963 7      3416.031          42.500    22397998.4224  117702322.95647      3416.0314         42.7004   22398004.314    91716132.102 7      2661.844          44.100    22398003.8134   91716139.09447      2661.8444         42.6004   22398012.228    87894676.543 8      2550.934          48.300
G21  21311586.850   111993210.073 7     -2035.977          47.100    21311585.8454  111993210.07746     -2035.9774         39.8004                                                                   21311586.0054   87267457.69046     -1586.4774         39.8004
G17  23869923.148   125437305.625 6      2383.184          36.800    23869922.7214  125437305.61845      2383.1844         33.1004   23869926.272    97743366.724 6      1857.027          38.100    23869925.6474   97743370.71445      1857.0274         33.0004
E12  26320236.362   138313812.607 6      2176.562          36.200    26320249.836   103286351.677 6      1625.355          40.400    26320246.582   105980765.014 6      1667.758          40.300    26320248.093   104633565.722 6      1646.559          40.400
G07  23450475.896   123233020.552 6     -2538.148          36.700    23450476.1774  123233020.55545     -2538.1484         33.6004   23450481.917    96025730.023 6     -1977.777          36.700    23450482.3174   96025728.01945     -1977.7774         33.5004
R03  22556280.898   120745613.811 6      2482.031          41.900    22556283.502   120745613.807 6      2482.031          41.100    22556281.805    93913299.501 7      1930.469          43.100    22556282.213    93913293.498 7      1930.469          43.000
E21  28120094.801   147771971.342 5     -2869.758          31.800    28120116.801   110349205.268 5     -2143.000          35.500    28120113.314   113227872.445 6     -2198.902          36.300    28120114.809   111788544.234 6     -2170.953          36.100
G14  21638215.188   113709635.265 7      2496.902          46.000    21638215.1324  113709635.27746      2496.9024         36.6004   21638216.074    88604931.859 7      1945.641          47.400    21638216.2404   88604933.86246      1945.6414         36.3004   21638228.400    84913112.250 8      1864.570          50.700
E31  23980798.716   126020013.620 7      1084.340          47.400    23980811.450    94105931.308 8       809.734          51.600    23980809.050    96560859.444 8       830.859          52.100    23980810.223    95333398.252 8       820.297          51.900
R16  20156440.518   107672118.622 8     -2638.637          52.300    20156443.241   107672118.615 8     -2638.637          50.800    20156441.261    83744995.067 8     -2052.273          50.300    20156441.661    83744999.074 8     -2052.273          50.100
E33  23505495.752   123522283.424 7       174.027          46.400    23505506.543    92240744.419 8       129.957          53.000    23505503.923    94647012.179 8       133.348          53.000    23505505.183    93443883.673 8       131.652          53.100
R18  20766278.346   110851857.982 8     -1878.109          49.900    20766280.872   110851857.979 8     -1878.109          49.200    20766277.736    86218130.029 7     -1460.750          47.900    20766278.509    86218144.019 7     -1460.750          47.700
E26  24853629.213   130606747.890 7     -1829.848          45.000    24853639.743    97531076.856 8     -1366.445          48.000    24853637.251   100075352.151 8     -1402.090          48.600    24853638.474    98803219.879 8     -1384.270          48.000
J04  36830578.054   193546010.611 6       343.082          37.500    36830583.717   150815096.727 6       267.336          39.800    36830593.578   144531176.680 7       256.195          43.700
J07  37270475.836   195857671.845 6       139.172          38.800    37270478.467   152616376.873 7       108.445          45.500    37270488.223   146257400.049 8       103.930          49.900
J03  38527939.179   202465675.478 7      -413.160          47.500    38527941.200   157765460.438 8      -321.941          50.700    38527950.091   151191935.158 8      -308.527          53.000
> 2023 05 28 02 17 30.0000000  0 26
R02  23341147.384   124552866.005 6      -442.367          40.600    23341149.436   124552866.007 6      -442.367          39.600    23341149.517    96874478.290 6      -344.062          39.700    23341150.065    96874474.287 6      -344.062          39.800
R19  20129753.888   107680642.537 6       295.766          39.900    20129756.538   107680642.530 6       295.766          39.000    20129751.986    83751632.716 8       230.039          48.800    20129752.310    83751626.712 8       230.039          48.500
R09  20447821.485   109190279.042 8      1669.211          50.600    20447823.969   109190279.042 8      1669.211          50.100    20447820.185    84925779.486 8      1298.277          50.900    20447820.581    84925777.491 8      1298.277          50.000
J02  37356142.882   196307892.065 7       725.496          46.900    37356145.568   152967205.999 8       565.320          49.000    37356154.331   146593618.120 8       541.766          52.900
G27  25085251.489   131823750.537 5     -2568.781          33.000    25085251.8194  131823750.54642     -2568.7814         12.7004   25085260.093   102719780.574 6     -2001.645          36.100    25085258.6884  102719778.57942     -2001.6454         13.1004   25085269.436    98439810.413 6     -1918.246          38.800
G01  19858631.060   104357878.395 8      -222.234          49.100    19858631.1764  104357878.39548      -222.2344         53.9004   19858633.608    81317862.014 8      -173.168          51.800    19858634.1304   81317875.01048      -173.1684         53.7004   19858640.570    77929661.596 9      -165.953          54.900
G02  23120306.673   121498078.508 7     -2464.133          42.200    23120306.1544  121498078.50345     -2464.1334         31.6004                                                                   23120305.7184   94673841.09245     -1920.1054         31.5004
G08  22269325.493   117026106.843 7     -1810.371          43.200    22269325.0264  117026106.82945     -1810.3714         33.1004   22269329.984    91189187.967 7     -1410.680          46.200    22269329.1724   91189189.96245     -1410.6804         32.9004   22269336.303    87389667.836 8     -1351.898          48.400
E14  20994857.500   110328638.651 6     -4789.754          36.600    20994874.462    82388278.774 6     -3576.762          40.300    20994871.453    84537530.042 6     -3670.070          41.600    20994872.887    83462910.278 6     -3623.418          41.000
G30  23326767.044   122582973.138 6     -1581.047          38.600    23326766.5104  122582973.14745     -1581.0474         35.0004   23326773.240    95519211.265 6     -1231.984          40.100    23326772.8544   95519217.25145     -1231.9844         34.7004   23326781.966    91539279.995 7     -1180.652          45.900
G03  22378523.017   117599979.480 7      3406.812          42.200    22378523.0554  117599979.46947      3406.8124         42.7004   22378528.987    91636384.024 7      2654.660          44.900    22378528.6414   91636391.02347      2654.6604         42.6004   22378537.166    87818251.329 7      2544.051          47.600
G21  21323226.871   112054379.758 7     -2042.023          47.300    21323225.7604  112054379.76046     -2042.0234         39.6004                                                                   21323225.9914   87315122.37546     -1591.1884         39.6004
G17  23856318.034   125365815.056 6      2382.871          36.100    23856317.8094  125365815.07745      2382.8714         32.5004   23856321.529    97687659.927 6      1856.781          38.700    23856321.6274   97687663.93145      1856.7814         32.3004
E12  26307827.600   138248607.330 6      2170.180          36.300    26307841.715   103237659.544 6      1620.590          40.800    26307838.690   105930802.631 6      1662.863          40.900    26307840.170   104584238.465 6      1641.727          41.000
G07  23464978.435   123309228.363 6     -2542.582          38.000    23464978.2824  123309228.36745     -2542.5824         34.7004   23464984.627    96085112.499 6     -1981.234          38.900    23464984.4424   96085110.49345     -1981.2344         34.5004
R03  22542414.973   120671393.695 7      2465.707          42.900    22542418.060   120671393.715 6      2465.707          41.900    22542416.779    93855572.955 7      1917.773          42.200    22542417.048    93855566.963 7      1917.773          42.500
E21  28136483.096   147858085.751 5     -2871.926          31.300    28136504.114   110413511.279 5     -2144.621          35.000    28136500.487   113293856.008 5     -2200.566          35.900    28136502.345   111853689.017 5     -2172.594          35.400
G14  21623997.355   113634920.936 7      2483.973          45.700    21623997.6194  113634920.94046      2483.9734         36.3004   21623998.386    88546712.922 7      1935.562          47.200    21623998.5534   88546714.92246      1935.5624         36.4004   21624010.564    84857319.114 8      1854.914          50.600
E31  23974642.490   125987662.423 7      1072.305          46.600    23974655.330    94081772.934 8       800.746          51.200    23974652.735    96536070.856 8       821.637          52.000    23974654.038    95308924.772 8       811.191          51.500
R16  20171318.620   107751593.475 8     -2659.668          52.500    20171321.224   107751593.473 8     -2659.668          51.100    20171319.408    83806808.749 8     -2068.629          50.500    20171319.624    83806812.754 8     -2068.629          49.900
E33  23504525.543   123517184.080 7       165.762          46.400    23504536.056    92236936.487 8       123.785          52.300    23504533.532    94643104.910 8       127.012          53.500    23504534.804    93440026.074 8       125.398          52.900
R18  20776843.883   110908257.183 8     -1881.973          49.400    20776846.373   110908257.171 8     -1881.973          49.100    20776843.857    86261996.030 8     -1463.758          48.500    20776844.385    86262010.025 8     -1463.758          48.100
E26  24864083.911   130661687.390 7     -1832.891          44.800    24864094.474    97572103.081 7     -1368.715          47.700    24864092.022   100117448.631 8     -1404.422          48.400    24864093.182    98844781.228 8     -1386.570          48.300
J04  36828623.198   193535736.643 6       341.891          39.200    36828628.541   150807091.062 6       266.406          39.900    36828639.000   144523504.592 7       255.309          44.800
J07  37269681.376   195853498.350 6       138.953          38.300    37269684.632   152613124.790 7       108.277          45.200    37269694.100   146254283.465 8       103.766          49.800
J03  38530293.370   202478047.182 7      -411.723          46.200    38530295.287   157775100.730 8      -320.824          50.200    38530304.358   151201173.776 8      -307.457          53.500
> 2023 05 28 02 18  0.0000000  0 26
R02  23343699.214   124566485.137 6      -465.652          41.500    23343701.493   124566485.138 6      -465.652          40.700    23343702.130    96885070.977 6      -362.172          39.100    23343701.836    96885066.978 6      -362.172          38.700
R19  20128122.737   107671914.977 6       286.270          40.200    20128125.115   107671914.968 6       286.270          39.300    20128120.726    83744844.629 8       222.652          48.400    20128120.569    83744838.625 8       222.652          48.200
R09  20438513.234   109140573.007 8      1644.566          50.500    20438515.589   109140573.002 8      1644.566          49.700    20438511.807    84887119.235 8      1279.109          50.100    20438512.176    84887117.241 8      1279.109          50.200
J02  37352005.294   196286147.487 7       724.234          46.900    37352007.507   152950262.149 8       564.340          48.600    37352016.530   146577380.255 8       540.824          53.100
G27  25099919.564   131900832.131 5     -2570.031          33.700    25099918.9814  131900832.12541     -2570.0314         11.7004   25099928.681   102779843.936 5     -2002.621          34.300    25099928.3674  102779841.94541     -2002.6214         11.5004   25099938.393    98497371.061 6     -1919.180          39.600
G01  19859944.553   104364780.248 8      -237.793          48.700    19859944.5174  104364780.25248      -237.7934         53.7004   19859947.256    81323240.099 8      -185.293          52.300    19859947.5734   81323253.08848      -185.2934         53.3004   19859953.946    77934815.590 9      -177.570          55.100
G02  23134378.636   121572023.436 7     -2465.551          42.800    23134377.1444  121572023.44445     -2465.5514         31.6004                                                                   23134376.8844   94731460.50045     -1921.2074         31.6004
G08  22279675.550   117080496.113 7     -1815.547          43.500    22279675.2144  117080496.10845     -1815.5474         32.9004   22279679.873    91231569.157 7     -1414.711          45.800    22279679.3764   91231571.14845     -1414.7114         32.9004   22279686.208    87430283.133 8     -1355.766          49.300
E14  21022255.854   110472616.843 5     -4808.641          35.400    21022272.760    82495794.631 6     -3590.867          40.400    21022269.910    84647850.683 6     -3684.543          41.400    21022271.398    83571828.530 6     -3637.707          41.000
G30  23335825.924   122630575.328 6     -1592.582          37.500    23335824.8534  122630575.33646     -1592.5824         36.4004   23335832.553    95556303.713 6     -1240.973          41.800    23335831.9394   95556309.71246     -1240.9734         36.2004   23335840.192    91574826.919 7     -1189.266          45.200
G03  22359099.963   117497911.031 7      3397.840          42.300    22359099.9864  117497911.02447      3397.8404         42.8004   22359105.824    91556850.278 7      2647.668          44.400    22359105.2504   91556857.27247      2647.6684         42.4004   22359113.654    87742031.510 7      2537.348          47.700
G21  21334900.729   112115725.829 7     -2047.688          46.500    21334899.7444  112115725.82746     -2047.6884         39.4004                                                                   21334899.8694   87362924.49246     -1595.6024         39.8004
G17  23842714.230   125294328.703 6      2382.891          36.000    23842714.3694  125294328.70545      2382.8914         33.8004   23842718.000    97631956.407 6      1856.797          38.800    23842717.9264   97631960.39645      1856.7974         33.7004
E12  26295455.241   138183587.986 6      2164.371          36.000    26295468.410   103189106.246 6      1616.250          40.600    26295465.994   105880982.699 6      1658.414          40.900    26295467.283   104535051.848 6      1637.332          40.700
G07  23479505.205   123385566.425 6     -2546.609          36.700    23479505.0334  123385566.42445     -2546.6094         33.2004   23479511.283    96144596.440 6     -1984.371          38.100    23479511.4764   96144594.42345     -1984.3714         33.5004
R03  22528642.983   120597663.879 7      2449.594          43.600    22528644.567   120597663.875 7      2449.594          42.500    22528643.481    93798227.723 7      1905.238          42.500    22528643.371    93798221.731 7      1905.238          42.600
E21  28152880.838   147944258.886 5     -2873.285          30.400    28152902.416   110477861.147 5     -2145.637          34.100    28152898.146   113359884.579 5     -2201.609          32.800    28152900.150   111918878.239 5     -2173.621          33.600
G14  21609852.863   113560590.579 7      2471.434          45.200    21609852.7444  113560590.59346      2471.4344         36.6004   21609854.256    88488793.206 8      1925.793          48.000    21609854.2334   88488795.19746      1925.7934         36.7004   21609866.185    84801812.717 8      1845.551          51.000
E31  23968554.268   125955667.316 7      1060.680          47.200    23968566.917    94057880.481 8       792.066          51.800    23968564.267    96511555.120 8       812.730          51.800    23968565.576    95284720.675 8       802.398          51.500
R16  20186313.839   107831695.136 8     -2680.316          52.200    20186316.464   107831695.134 8     -2680.316          51.400    20186314.586    83869109.953 8     -2084.691          49.900    20186314.883    83869113.959 8     -2084.691          49.700
E33  23503601.880   123512330.687 7       157.836          46.400    23503612.445    92233312.213 8       117.863          52.900    23503609.920    94639386.084 8       120.938          53.300    23503611.202    93436354.524 8       119.402          52.500
R18  20787429.961   110964768.382 8     -1885.406          49.700    20787432.684   110964768.381 8     -1885.406          49.100    20787430.279    86305949.168 7     -1466.426          47.800    20787430.821    86305963.168 8     -1466.426          48.200
E26  24874554.555   130716710.651 7     -1835.324          44.300    24874565.173    97613191.849 8     -1370.531          48.100    24874562.502   100159609.281 8     -1406.285          48.300    24874563.844    98886405.940 8     -1388.410          48.700
J04  36826674.648   193525493.826 6       341.086          38.900    36826679.119   150799109.696 6       265.781          39.800    36826689.837   144515855.780 7       254.707          45.600
J07  37268887.126   195849323.890 6       139.250          37.800    37268889.998   152609871.958 7       108.508          44.900    37268899.765   146251166.168 8       103.984          49.800
J03  38532638.316   202490369.626 7      -409.781          46.100    38532640.060   157784702.646 8      -319.309          49.600    38532649.248   151210375.608 8      -306.004          53.500
> 2023 05 28 02 18 30.0000000  0 25
R02  23346382.674   124580807.383 6      -489.211          40.800    23346385.643   124580807.392 6      -489.211          40.300    23346386.016    96896210.550 6      -380.500          41.100    23346386.333    96896206.553 6      -380.500          40.600
R19  20126545.695   107663477.191 6       276.211          40.300    20126548.032   107663477.182 6       276.211          39.200    20126543.508    83738281.903 8       214.828          49.000    20126543.358    83738275.907 8       214.828          48.700
R09  20429345.088   109091614.355 8      1619.395          50.100    20429347.170   109091614.354 8      1619.395          49.500    20429343.330    84849040.280 8      1259.527          50.300    20429343.864    84849038.288 8      1259.527          49.900
J02  37347875.263   196264444.491 7       722.625          46.600    37347877.913   152933350.706 8       563.086          48.800    37347886.586   146561173.447 8       539.625          53.100
G27  25114596.247   131977957.913 5     -2571.488          32.100    25114596.0504  131977957.90342     -2571.4884         12.5004   25114605.412   102839941.705 5     -2003.758          35.700    25114605.8864  102839939.70842     -2003.7584         12.7004   25114614.504    98554964.692 6     -1920.266          38.600
G01  19861347.155   104372151.665 8      -253.645          48.400    19861347.3234  104372151.66549      -253.6454         54.0004   19861350.203    81328984.073 8      -197.645          52.200    19861350.3824   81328997.06548      -197.6454         53.4004   19861356.670    77940320.235 9      -189.410          55.800
G02  23148458.318   121646013.030 7     -2467.113          43.300    23148457.6644  121646013.03645     -2467.1134         32.0004                                                                   23148456.8384   94789114.66145     -1922.4264         32.1004
G08  22290055.828   117135044.802 7     -1821.078          43.000    22290055.3734  117135044.78645     -1821.0784         32.9004   22290060.323    91274074.567 7     -1419.020          45.700    22290059.5634   91274076.55845     -1419.0204         32.7004   22290066.603    87471017.469 8     -1359.895          48.800
E14  21049761.217   110617156.772 5     -4827.434          35.000    21049778.376    82603729.967 6     -3604.902          41.300    21049775.154    84758601.779 6     -3698.945          41.000    21049776.778    83681171.746 6     -3651.922          41.200
G30  23344950.590   122678527.941 6     -1604.340          37.600    23344949.2674  122678527.95045     -1604.3404         35.7004   23344957.535    95593669.261 6     -1250.133          41.700    23344956.9604   95593675.26045     -1250.1334         35.3004   23344966.275    91610635.524 7     -1198.047          46.300
G03  22339729.110   117396116.949 6      3388.297          41.800    22339729.0934  117396116.95347      3388.2974         42.6004   22339734.636    91477530.307 7      2640.234          44.400    22339734.2834   91477537.30747      2640.2344         42.4004   22339743.146    87666016.556 8      2530.223          48.200
G21  21346606.997   112177242.084 8     -2053.449          48.000    21346606.1734  112177242.09046     -2053.4494         39.5004                                                                   21346606.0154   87410859.23446     -1600.0904         39.7004
G17  23829110.749   125222842.827 6      2382.855          36.900    23829111.1604  125222842.81745      2382.8554         32.0004   23829113.583    97576253.228 6      1856.770          36.800    23829113.4794   97576257.21845      1856.7704         31.9004
E12  26283117.248   138118750.687 6      2158.086          36.900    26283129.803   103140688.898 6      1611.555          40.300    26283126.812   105831302.262 6      1653.598          40.200    26283128.433   104486002.955 6      1632.578          40.200
G07  23494055.800   123462027.434 6     -2550.852          37.700    23494055.3174  123462027.44145     -2550.8524         33.6004   23494061.649    96204176.234 6     -1987.676          38.000    23494061.9924   96204174.23445     -1987.6764         33.6004
R03  22514960.371   120524424.243 7      2432.969          43.700    22514962.656   120524424.242 7      2432.969          42.700    22514961.573    93741263.762 7      1892.309          44.000    22514961.881    93741257.750 7      1892.309          43.700
G14  21595781.045   113486642.810 7      2458.402          45.300    21595781.1884  113486642.81346      2458.4024         36.9004   21595782.154    88431171.587 7      1915.637          47.500    21595781.9864   88431173.58346      1915.6374         36.7004   21595794.353    84746592.019 8      1835.820          50.900
E31  23962532.900   125924025.529 7      1048.801          47.100    23962545.643    94034251.866 8       783.195          52.200    23962543.118    96487310.106 8       803.629          52.000    23962544.334    95260783.860 8       793.414          51.700
R16  20201424.986   107912416.221 8     -2701.047          51.600    20201427.675   107912416.214 8     -2701.047          51.400    20201425.806    83931892.922 8     -2100.812          50.200    20201426.019    83931896.926 8     -2100.812          49.600
E33  23502724.038   123507718.447 7       149.527          46.400    23502734.786    92229868.027 8       111.660          52.000    23502732.260    94635852.049 8       114.574          53.100    23502733.509    93432865.413 8       113.117          53.100
R18  20798036.295   111021386.093 8     -1889.121          49.600    20798039.180   111021386.098 8     -1889.121          48.900    20798036.601    86349985.155 8     -1469.316          48.600    20798037.285    86349999.156 8     -1469.316          48.000
E26  24885040.328   130771812.624 7     -1838.184          45.200    24885050.605    97654339.401 7     -1372.668          47.600    24885047.996   100201830.251 8     -1408.477          48.100    24885049.310    98928090.200 8     -1390.574          48.000
J04  36824730.154   193515278.434 6       339.914          39.000    36824734.949   150791149.684 6       264.867          39.900    36824745.645   144508227.461 7       253.832          45.600
J07  37268091.954   195845144.518 6       139.258          39.300    37268095.038   152606615.295 7       108.512          45.400    37268104.343   146248045.200 8       103.992          49.900
J03  38534972.868   202502638.650 7      -408.199          47.200    38534974.613   157794262.926 8      -318.078          49.600    38534983.971   151219537.545 8      -304.824          53.400
> 2023 05 28 02 19  0.0000000  0 25
R02  23349199.829   124595836.424 6      -512.715          41.400    23349202.019   124595836.422 6      -512.715          41.000    23349201.409    96907899.856 6      -398.777          40.200    23349202.034    96907895.865 6      -398.777          39.400
R19  20125023.098   107655331.213 6       266.770          40.100    20125024.681   107655331.209 6       266.770          39.300    20125020.313    83731946.156 8       207.484          48.300    20125020.595    83731940.153 8       207.484          48.200
R09  20420317.676   109043409.188 8      1594.312          50.100    20420319.907   109043409.180 8      1594.312          49.700    20420316.292    84811547.363 8      1240.023          50.200    20420316.551    84811545.369 8      1240.023          50.100
J02  37343753.907   196242786.692 7       721.152          46.700    37343756.647   152916474.480 8       561.938          49.100    37343765.306   146545000.394 8       538.523          52.700
G27  25129282.206   132055131.056 5     -2573.316          33.300    25129281.4524  132055131.03741     -2573.3164         11.6004   25129291.896   102900076.313 5     -2005.180          35.400    25129292.0914  102900074.31741     -2005.1804         11.7004   25129300.680    98612593.639 6     -1921.633          37.700
G01  19862839.794   104379994.446 8      -269.234          49.100    19862839.7784  104379994.45049      -269.2344         54.2004   19862842.583    81335095.341 8      -209.793          51.800    19862842.7704   81335108.33748      -209.7934         53.7004   19862849.140    77946176.876 9      -201.051          55.300
G02  23162546.497   121720049.399 7     -2468.652          42.600    23162545.8734  121720049.39745     -2468.6524         31.7004                                                                   23162545.1944   94846805.28945     -1923.6254         31.6004
G08  22300467.412   117189756.150 7     -1826.398          43.800    22300466.7314  117189756.14245     -1826.3984         32.4004   22300471.646    91316706.719 7     -1423.168          45.300    22300470.4294   91316708.71445     -1423.1684         32.2004   22300478.108    87511873.262 8     -1363.871          48.500
E14  21077372.115   110762257.435 5     -4845.957          34.200    21077390.237    82712084.046 6     -3618.734          40.200    21077387.330    84869782.507 6     -3713.133          41.400    21077388.718    83790939.148 6     -3665.934          40.900
G30  23354143.043   122726831.668 6     -1615.840          37.400    23354141.5854  122726831.66546     -1615.8404         36.0004   23354149.847    95631308.374 6     -1259.098          41.800    23354149.5114   95631314.36446     -1259.0984         36.1004   23354157.740    91646706.314 7     -1206.637          45.700
G03  22320411.872   117294603.667 7      3379.055          43.300    22320411.6354  117294603.66447      3379.0554         43.3004   22320417.766    91398429.156 7      2633.031          45.200    22320417.2894   91398436.14747      2633.0314         43.4004   22320425.907    87590211.304 8      2523.320          48.600
G21  21358346.137   112238930.503 7     -2059.188          47.300    21358345.0494  112238930.50346     -2059.1884         39.4004                                                                   21358344.8974   87458928.11346     -1604.5624         39.3004
G17  23815508.515   125151360.539 6      2382.793          37.600    23815508.8244  125151360.53345      2382.7934         33.0004   23815511.019    97520552.867 6      1856.723          37.100    23815511.1694   97520556.86445      1856.7234         33.1004
E12  26270813.861   138054099.016 6      2152.000          37.300    26270827.375   103092410.154 6      1607.012          40.300    26270824.625   105781764.077 6      1648.934          40.900    26270825.870   104437094.491 6      1627.973          40.600
G07  23508628.889   123538611.699 6     -2554.613          37.100    23508628.9004  123538611.69445     -2554.6134         33.6004   23508637.417    96263852.022 6     -1990.605          39.500    23508636.5944   96263850.01545     -1990.6054         33.7004
R03  22501371.587   120451682.256 7      2416.516          43.700    22501373.965   120451682.270 7      2416.516          42.600    22501372.313    93684686.814 7      1879.512          42.100    22501372.477    93684680.823 7      1879.512          42.800
G14  21581783.375   113413083.463 7      2445.535          45.700    21581783.1524  113413083.47346      2445.5354         36.5004   21581784.065    88373852.643 7      1905.613          47.500    21581784.1264   88373854.64346      1905.6134         36.5004   21581796.251    84691661.365 8      1826.211          50.400
E31  23956579.966   125892741.607 7      1036.895          47.000    23956592.509    94010890.483 8       774.305          51.400    23956590.003    96463339.296 8       794.504          51.800    23956591.253    95237117.767 8       784.402          51.900
R16  20216651.958   107993756.386 8     -2721.590          51.700    20216654.875   107993756.382 8     -2721.590          50.900    20216653.173    83995157.403 8     -2116.793          49.300    20216653.173    83995161.409 8     -2116.793          49.300
E33  23501893.235   123503349.700 7       141.609          46.600    23501903.501    92226605.671 8       105.746          52.400    23501900.870    94632504.584 8       108.504          53.100    23501902.179    93429560.499 8       107.125          52.800
R18  20808663.085   111078112.262 8     -1892.695          49.500    20808665.841   111078112.270 8     -1892.695          48.700    20808663.466    86394105.490 8     -1472.094          48.200    20808663.848    86394119.488 7     -1472.094          47.700
E26  24895541.604   130826995.396 7     -1840.855          44.800    24895551.731    97695547.283 7     -1374.664          47.600    24895549.062   100244113.127 8     -1410.523          48.800    24895550.417    98969835.580 8     -1392.594          48.100
J04  36822792.317   193505093.965 6       339.094          39.400    36822797.023   150783213.776 6       264.230          39.800    36822807.404   144500622.230 7       253.219          45.300
J07  37267296.237   195840963.616 6       139.570          38.900    37267299.267   152603357.437 7       108.758          44.900    37267308.851   146244923.078 8       104.227          49.700
J03  38537298.325   202514857.365 7      -406.418          47.200    38537300.057   157803783.999 8      -316.691          49.400    38537309.081   151228661.911 8      -303.496          53.700
> 2023 05 28 02 19 30.0000000  0 25
R02  23352148.789   124611573.172 7      -536.379          42.000    23352150.879   124611573.166 6      -536.379          40.800    23352150.516    96920139.566 6      -417.184          40.600    23352151.222    96920135.572 6      -417.184          40.200
R19  20123553.750   107647477.249 6       257.090          40.100    20123556.713   107647477.252 6       257.090          39.200    20123552.237    83725837.530 8       199.961          49.000    20123552.246    83725831.529 7       199.961          47.900
R09  20411432.071   108995960.918 8      1568.977          51.200    20411434.253   108995960.921 8      1568.977          50.200    20411430.543    84774643.171 8      1220.316          50.500    20411431.058    84774641.171 8      1220.316          50.300
J02  37339641.421   196221175.848 7       719.629          45.400    37339644.051   152899634.833 8       560.750          48.800    37339652.990   146528862.401 8       537.387          53.100
G27  25143977.215   132132353.072 5     -2574.867          33.900    25143976.9864  132132353.08442     -2574.8674         12.7004   25143985.931   102960249.083 5     -2006.391          34.300    25143987.6914  102960247.07942     -2006.3914         12.4004   25143995.782    98670259.159 6     -1922.793          38.800
G01  19864421.605   104388308.584 8      -284.918          48.400    19864421.8374  104388308.58148      -284.9184         53.8004   19864424.599    81341573.893 8      -222.016          52.400    19864424.8694   81341586.88848      -222.0164         53.4004   19864431.351    77952385.487 9      -212.766          55.100
G02  23176644.546   121794132.213 7     -2470.129          43.500    23176643.5334  121794132.20945     -2470.1294         31.3004                                                                   23176642.7924   94904532.10945     -1924.7734         31.4004
G08  22310909.236   117244632.102 7     -1831.844          42.800    22310909.2484  117244632.08445     -1831.8444         32.6004   22310914.275    91359467.140 7     -1427.410          45.700    22310913.8604   91359469.12645     -1427.4104         32.3004   22310920.444    87552851.984 8     -1367.934          48.400
E14  21105091.804   110907915.812 5     -4864.410          35.300    21105108.378    82820854.576 6     -3632.512          40.400    21105105.353    84981390.576 6     -3727.273          40.500    21105106.763    83901128.454 6     -3679.895          40.500
G30  23363401.476   122775485.396 6     -1627.484          36.700    23363400.9104  122775485.40245     -1627.4844         35.6004   23363408.032    95669220.200 7     -1268.172          42.100    23363407.8974   95669226.20245     -1268.1724         35.4004   23363416.368    91683038.468 7     -1215.332          44.800
G03  22301148.747   117193375.966 6      3369.496          41.700    22301148.7064  117193375.96947      3369.4964         43.2004   22301154.475    91319550.520 7      2625.582          44.900    22301153.8914   91319557.51147      2625.5824         42.9004   22301162.741    87514619.305 8      2516.184          48.700
G21  21370117.588   112300789.771 7     -2064.758          47.200    21370116.4644  112300789.77346     -2064.7584         39.7004                                                                   21370116.2204   87507130.12846     -1608.9024         39.4004
G17  23801907.335   125079883.580 6      2382.664          38.000    23801907.1434  125079883.57345      2382.6644         34.4004   23801910.410    97464856.674 6      1856.621          38.500    23801909.5134   97464860.66245      1856.6214         34.4004
E12  26258546.989   137989634.581 6      2145.852          36.300    26258559.744   103044271.228 6      1602.422          39.900    26258556.957   105732369.350 6      1644.227          40.200    26258558.406   104388327.664 6      1623.324          40.300
G07  23523226.095   123615317.554 6     -2558.551          36.000    23523225.7354  123615317.55745     -2558.5514         32.9004   23523232.563    96323622.548 6     -1993.676          37.900    23523232.4564   96323620.52845     -1993.6764         32.8004
R03  22487876.717   120379443.292 7      2399.531          44.000    22487878.640   120379443.296 7      2399.531          42.900    22487877.052    93628501.132 7      1866.301          42.100    22487877.357    93628495.126 7      1866.301          42.900
G14  21567860.443   113339916.595 7      2432.418          46.300    21567860.0194  113339916.60246      2432.4184         36.9004   21567860.909    88316839.515 7      1895.391          47.500    21567861.0444   88316841.51246      1895.3914         36.8004   21567873.007    84637023.792 8      1816.418          50.600
E31  23950695.391   125861818.182 7      1024.840          47.000    23950707.994    93987798.307 8       765.301          52.100    23950705.443    96439644.720 8       785.266          52.400    23950706.799    95213724.388 8       775.285          51.900
R16  20231994.451   108075713.540 8     -2742.105          51.800    20231997.433   108075713.542 8     -2742.105          51.200    20231995.593    84058901.780 8     -2132.750          49.900    20231995.949    84058905.780 8     -2132.750          50.100
E33  23501108.360   123499225.080 7       133.473          46.800    23501118.597    92223525.613 8        99.672          52.600    23501115.966    94629344.174 8       102.270          53.300    23501117.281    93426440.269 8       100.969          52.500
R18  20819310.133   111134946.927 8     -1896.188          49.700    20819312.991   111134946.922 8     -1896.188          48.300    20819310.237    86438310.191 8     -1474.812          48.100    20819310.884    86438324.188 7     -1474.812          47.800
E26  24906057.535   130882259.342 7     -1843.312          44.800    24906068.244    97736815.793 7     -1376.500          47.600    24906065.450   100286458.212 8     -1412.410          48.000    24906066.692    99011642.376 8     -1394.453          48.100
J04  36820859.595   193494942.311 6       337.848          38.000    36820865.103   150775303.429 6       263.258          40.100    36820875.105   144493041.506 7       252.289          44.300
J07  37266501.067   195836782.608 6       139.484          38.700    37266503.734   152600099.500 7       108.688          45.100    37266513.212   146241800.887 8       104.160          49.700
J03  38539613.946   202527027.094 7      -404.801          47.300    38539615.675   157813266.910 8      -315.430          49.900    38539624.830   151237749.695 8      -302.285          53.400
> 2023 05 28 02 20  0.0000000  0 25
R02  23355231.128   124628016.035 7      -559.867          42.900    23355232.652   124628016.032 6      -559.867          41.500    23355232.200    96932928.523 6      -435.453          37.400    23355232.164    96932924.529 6      -435.453          37.700
R19  20122140.782   107639912.669 6       247.324          40.200    20122142.447   107639912.666 6       247.324          39.100    20122138.157    83719953.978 8       192.363          48.300    20122138.185    83719947.982 8       192.363          48.300
R09  20402688.583   108949270.406 8      1543.688          51.100    20402690.790   108949270.404 8      1543.688          50.300    20402686.853    84738328.313 8      1200.645          50.600    20402687.451    84738326.314 8      1200.645          50.600
J02  37335537.959   196199610.950 7       718.027          47.300    37335540.396   152882831.001 8       559.504          49.200    37335549.339   146512758.718 8       536.191          53.700
G27  25158681.307   132209622.758 5     -2576.316          33.800    25158678.5024  132209622.72441     -2576.3164         11.4004   25158691.137   103020458.993 5     -2007.520          33.000    25158689.8094  103020456.99941     -2007.5204         11.6004   25158699.898    98727960.253 6     -1923.875          38.000
G01  19866093.013   104397091.364 8      -300.539          49.000    19866093.0704  104397091.36048      -300.5394         53.9004   19866095.711    81348417.620 8      -234.188          52.400    19866096.0214   81348430.61248      -234.1884         53.5004   19866102.679    77958944.059 9      -224.430          55.100
G02  23190750.349   121868258.930 7     -2471.691          42.500    23190748.9754  121868258.93545     -2471.6914         31.5004                                                                   23190749.2174   94962293.15545     -1925.9964         31.5004
G08  22321383.506   117299671.734 7     -1837.199          43.500    22321383.1904  117299671.72745     -1837.1994         32.4004   22321387.912    91402355.111 7     -1431.582          45.700    22321387.0314   91402357.09845     -1431.5824         32.3004   22321394.224    87593952.925 8     -1371.934          48.500
E14  21132913.981   111054125.991 5     -4882.797          33.000    21132931.440    82930037.148 6     -3646.242          40.200    21132927.535    85093421.425 6     -3741.363          39.300    21132929.427    84011735.163 6     -3693.801          40.200
G30  23372725.855   122824485.196 6     -1639.164          36.400    23372724.8894  122824485.19145     -1639.1644         35.1004   23372732.938    95707401.703 6     -1277.273          41.400    23372733.0694   95707407.69445     -1277.2734         35.3004   23372741.017    91719629.045 7     -1224.051          44.900
G03  22281940.106   117092435.576 7      3359.836          42.400    22281940.2924  117092435.56747      3359.8364         43.9004   22281946.230    91240895.773 7      2618.055          45.300    22281945.6964   91240902.76947      2618.0554         43.2004   22281954.003    87439241.863 7      2508.969          47.900
G21  21381920.795   112362816.845 7     -2070.348          47.300    21381920.0454  112362816.84446     -2070.3484         39.6004                                                                   21381919.5734   87555462.89246     -1613.2584         39.8004
G17  23788306.379   125008410.523 6      2382.445          37.800    23788306.2934  125008410.52645      2382.4454         33.6004   23788309.134    97409163.498 6      1856.449          38.200    23788308.9234   97409167.50045      1856.4494         33.4004
E12  26246314.183   137925356.203 6      2139.645          36.700    26246328.187   102996271.262 6      1597.785          40.300    26246325.482   105683117.185 6      1639.469          40.600    26246326.841   104339701.598 6      1618.625          40.600
G07  23537844.283   123692140.805 5     -2562.980          35.300    23537844.9714  123692140.81945     -2562.9804         33.1004   23537851.252    96383484.548 6     -1997.125          38.200    23537851.8364   96383482.54245     -1997.1254         32.9004
R03  22474475.830   120307709.837 7      2382.648          43.000    22474477.719   120307709.836 7      2382.648          42.700    22474476.979    93572708.579 7      1853.172          42.300    22474476.773    93572702.587 7      1853.172          42.200
G14  21554011.846   113267143.378 7      2419.141          43.800    21554011.5524  113267143.38846      2419.1414         37.0004   21554012.935    88260133.141 8      1885.047          48.300    21554012.7454   88260135.14046      1885.0474         36.9004   21554024.860    84582680.185 8      1806.500          50.800
E31  23944879.512   125831255.115 7      1012.730          47.200    23944892.068    93964975.226 8       756.258          51.200    23944889.460    96416226.254 8       775.988          52.200    23944890.794    95190603.613 8       766.125          52.000
R16  20247451.851   108158282.793 8     -2762.453          52.200    20247454.591   108158282.793 8     -2762.453          50.700    20247452.390    84123122.213 8     -2148.574          50.100    20247453.131    84123126.216 8     -2148.574          49.800
E33  23500368.996   123495342.357 7       125.441          46.300    23500379.635    92220626.191 8        93.672          52.300    23500377.116    94626369.116 8        96.117          53.000    23500378.385    93423503.027 8        94.895          52.700
R18  20829977.129   111191887.348 8     -1899.750          49.700    20829979.660   111191887.343 8     -1899.750          48.900    20829976.910    86482597.176 8     -1477.582          48.300    20829977.771    86482611.166 8     -1477.582          48.000
E26  24916589.217   130937602.074 7     -1846.121          44.300    24916599.436    97778143.118 7     -1378.598          47.800    24916597.078   100328863.646 8     -1414.559          48.200    24916598.248    99053508.757 7     -1396.578          47.800
J04  36818934.001   193484822.322 6       336.750          38.500    36818940.030   150767417.784 6       262.402          40.000    36818948.921   144485484.421 7       251.469          44.700
J07  37265704.960   195832600.396 6       139.691          38.800    37265707.768   152596840.630 7       108.852          45.300    37265717.329   146238677.803 8       104.316          49.700
J03  38541920.338   202539146.336 7      -403.168          47.700    38541922.105   157822710.477 8      -314.156          50.000    38541931.061   151246799.781 8      -301.066          53.800
> 2023 05 28 02 20 30.0000000  0 25
R02  23358443.378   124645163.474 6      -583.258          40.000    23358446.058   124645163.471 6      -583.258          39.500    23358445.641    96946265.416 6      -453.645          38.600    23358445.709    96946261.412 6      -453.645          38.300
R19  20120780.147   107632634.925 6       237.895          40.300    20120782.128   107632634.922 6       237.895          39.100    20120777.481    83714293.522 8       185.027          48.300    20120777.568    83714287.521 8       185.027          48.400
R09  20394086.747   108903338.623 8      1518.352          50.200    20394089.222   108903338.624 8      1518.352          49.400    20394085.426    84702603.586 8      1180.941          50.800    20394085.859    84702601.592 8      1180.941          50.000
J02  37331442.889   196178091.149 7       716.562          47.000    37331445.579   152866062.309 8       558.359          49.400    37331454.253   146496688.719 8       535.094          53.000
G27  25173393.060   132286938.807 5     -2577.664          32.600    25173391.8604  132286938.78141     -2577.6644         11.4004   25173403.624   103080705.040 5     -2008.570          33.600    25173399.4484  103080703.04741     -2008.5704         11.1004   25173412.548    98785696.024 6     -1924.879          37.500
G01  19867853.086   104406340.079 8      -316.070          48.900    19867853.1334  104406340.07849      -316.0704         54.4004   19867855.707    81355624.421 8      -246.289          52.400    19867855.9984   81355637.41448      -246.2894         53.6004   19867862.585    77965850.577 9      -236.023          55.600
G02  23204863.712   121942427.051 7     -2472.957          42.100    23204863.0994  121942427.05545     -2472.9574         31.7004                                                                   23204861.8944   95020086.43745     -1926.9804         31.7004
G08  22331887.823   117354872.863 7     -1842.684          43.300    22331887.7954  117354872.85845     -1842.6844         32.6004   22331892.200    91445368.902 7     -1435.855          45.200    22331891.6074   91445370.89045     -1435.8554         32.5004   22331898.837    87635174.471 8     -1376.027          48.100
E14  21160841.777   111200882.429 5     -4900.836          34.800    21160859.028    83039627.654 6     -3659.715          41.000    21160854.533    85205870.850 6     -3755.184          39.100    21160856.846    84122755.123 6     -3707.449          39.900
G30  23382114.444   122873827.201 6     -1650.367          36.100    23382114.3704  122873827.19845     -1650.3674         35.2004   23382122.903    95745849.875 6     -1286.000          41.500    23382122.1764   95745855.88145     -1286.0004         34.8004   23382130.737    91756475.182 7     -1232.418          44.400
G03  22262787.290   116991784.560 6      3350.137          41.900    22262786.9834  116991784.56047      3350.1374         43.1004   22262792.461    91162466.502 7      2610.496          44.900    22262792.1964   91162473.50247      2610.4964         43.6004   22262800.837    87364080.509 8      2501.727          48.500
G21  21393755.343   112425008.380 7     -2075.801          46.900    21393754.4944  112425008.38246     -2075.8014         39.6004                                                                   21393754.2564   87603923.81746     -1617.5084         39.8004
G17  23774705.142   124936940.401 5      2382.406          35.600    23774705.2764  124936940.39645      2382.4064         32.3004   23774707.865    97353472.596 6      1856.422          37.500    23774707.6434   97353476.60445      1856.4224         32.2004
E12  26234117.600   137861262.831 6      2133.387          36.200    26234131.346   102948409.446 6      1593.113          40.400    26234129.017   105634006.785 6      1634.672          41.600    26234130.183   104291215.491 6      1613.895          41.000
G07  23552485.072   123769077.675 5     -2566.336          34.600    23552485.1144  123769077.67045     -2566.3364         31.4004   23552492.174    96443435.053 6     -1999.742          38.300    23552492.6654   96443433.05145     -1999.7424         31.4004
R03  22461170.495   120236485.131 7      2365.641          44.100    22461172.771   120236485.138 7      2365.641          43.100    22461171.377    93517311.738 7      1839.945          43.900    22461171.464    93517305.745 7      1839.945          43.200
G14  21540238.819   113194765.150 7      2405.973          46.000    21540238.8664  113194765.15146      2405.9734         37.1004   21540239.670    88203734.543 8      1874.785          48.200    21540239.5434   88203736.54346      1874.7854         37.1004   21540251.686    84528631.530 8      1796.668          50.900
E31  23939132.043   125801052.417 7      1000.746          47.600    23939144.663    93942421.250 8       747.312          51.400    23939142.106    96393083.916 8       766.805          51.900    23939143.404    95167755.457 8       757.059          51.800
R16  20263022.438   108241459.447 8     -2782.633          51.500    20263025.467   108241459.445 8     -2782.633          50.600    20263023.849    84187815.073 8     -2164.270          49.600    20263024.110    84187819.077 8     -2164.270          49.700
E33  23499675.671   123491699.470 7       117.484          46.500    23499686.367    92217905.868 8        87.730          52.400    23499683.989    94623577.825 8        90.020          53.300    23499685.192    93420747.219 8        88.875          52.900
R18  20840662.798   111248930.807 8     -1903.125          49.100    20840665.897   111248930.809 8     -1903.125          48.800    20840663.166    86526964.303 8     -1480.207          48.400    20840663.924    86526978.296 8     -1480.207          48.200
E26  24927134.670   130993021.209 7     -1848.531          44.200    24927145.192    97819527.518 7     -1380.398          47.900    24927143.090   100371327.633 8     -1416.406          48.600    24927144.150    99095432.950 8     -1398.402          48.300
J04  36817014.231   193474733.110 6       335.852          38.900    36817019.599   150759556.112 6       261.703          40.300    36817029.373   144477950.325 7       250.797          44.600
J07  37264908.270   195828415.856 6       139.375          39.200    37264911.418   152593579.941 7       108.602          44.900    37264921.004   146235552.977 8       104.078          50.100
J03  38544216.488   202551213.728 7      -401.383          47.400    38544218.349   157832113.643 8      -312.766          50.100    38544227.434   151255811.142 8      -299.734          53.800
